markers =[
  {
    "Country": "The Netherlands",
    "Name": "Abraxas Coffeeshop",
    "Address": "Jonge Roelensteeg 12-14",
    "Zip_Code": "",
    "City": "Amsterdam",
    "Phone": "020 6255763",
    "Email": "abraxas@abraxas.tv",
    "Website": "",
    "Contact": "",
    "Lat": "52.37204169",
    "Lng": "4.891140908",
    "Icon": "1",
    "Verified": "1",
    "Yelp": "https://www.yelp.nl/biz/abraxas-amsterdam-2?osq=Abraxas+Coffeeshop",
    "Yelp_Status": "Not Claimed",
    "WMID": "363610023",
    "ID": "2933"
  },
  {
    "Country": "The Netherlands",
    "Name": "Barney's Coffeeshop",
    "Address": "Haarlemmerstraat 102",
    "Zip_Code": "",
    "City": "Amsterdam",
    "Phone": "020 6259761",
    "Email": "info@barneys.biz",
    "Website": "",
    "Contact": "",
    "Lat": "52.38071179",
    "Lng": "4.890871346",
    "Icon": "1",
    "Verified": "1",
    "Yelp": "https://www.yelp.nl/biz/barneys-coffeeshop-amsterdam?osq=Barney%27s+Coffeeshop",
    "Yelp_Status": "Not Claimed",
    "WMID": "749101031",
    "ID": "2935"
  },
  {
    "Country": "The Netherlands",
    "Name": "Bluebird",
    "Address": "Sint Antoniesbreestraat 71",
    "Zip_Code": "",
    "City": "Amsterdam",
    "Phone": "020 6225232",
    "Email": "info@coffeeshopbluebird.nl",
    "Website": "",
    "Contact": "",
    "Lat": "52.36996274",
    "Lng": "4.900906831",
    "Icon": "1",
    "Verified": "1",
    "Yelp": "https://www.yelp.com/biz/coffeeshop-blue-bird-amsterdam?osq=Bluebird",
    "Yelp_Status": "Not Claimed",
    "WMID": "461783138",
    "ID": "2938"
  },
  {
    "Country": "The Netherlands",
    "Name": "The Bulldog No. 90",
    "Address": "Oudezijds Voorburgwal 90",
    "Zip_Code": "",
    "City": "Amsterdam",
    "Phone": "020 6259864",
    "Email": "support@thebulldog.com",
    "Website": "",
    "Contact": "",
    "Lat": "52.37366777",
    "Lng": "4.897692204",
    "Icon": "1",
    "Verified": "1",
    "Yelp": "https://www.yelp.nl/biz/the-bulldog-no-90-the-first-amsterdam?osq=The+Bulldog+No.+90",
    "Yelp_Status": "Not Claimed",
    "WMID": "376436648",
    "ID": "2965"
  },
  {
    "Country": "The Netherlands",
    "Name": "De Dampkring",
    "Address": "Handboogstraat 29",
    "Zip_Code": "",
    "City": "Amsterdam",
    "Phone": "",
    "Email": "info@dampkring.nl",
    "Website": "",
    "Contact": "",
    "Lat": "52.36775513",
    "Lng": "4.890460968",
    "Icon": "1",
    "Verified": "1",
    "Yelp": "https://www.yelp.nl/biz/de-dampkring-amsterdam?osq=De+Dampkring",
    "Yelp_Status": "Not Claimed",
    "WMID": "733658697",
    "ID": "2971"
  },
  {
    "Country": "The Netherlands",
    "Name": "420 Coffeeshop",
    "Address": "Singel 387",
    "Zip_Code": "",
    "City": "Amsterdam",
    "Phone": "020 6247624",
    "Email": "",
    "Website": "",
    "Contact": "",
    "Lat": "52.36875005",
    "Lng": "4.888226688",
    "Icon": "1",
    "Verified": "1",
    "Yelp": "https://www.yelp.nl/biz/420-coffeeshop-amsterdam?osq=420+Coffeeshop",
    "Yelp_Status": "Not Claimed",
    "WMID": "372825836",
    "ID": "2973"
  },
  {
    "Country": "The Netherlands",
    "Name": "Flower Power",
    "Address": "Rozengracht 139",
    "Zip_Code": "",
    "City": "Amsterdam",
    "Phone": "020 6226198",
    "Email": "",
    "Website": "",
    "Contact": "",
    "Lat": "52.37270654",
    "Lng": "4.878602922",
    "Icon": "1",
    "Verified": "1",
    "Yelp": "https://www.yelp.nl/biz/flower-power-amsterdam?osq=Flower+Power",
    "Yelp_Status": "Not Claimed",
    "WMID": "372825836",
    "ID": "2973"
  },
  {
    "Country": "The Netherlands",
    "Name": "Grey Area",
    "Address": "Oude Leliestraat 2",
    "Zip_Code": "",
    "City": "Amsterdam",
    "Phone": "020 4204301",
    "Email": "info@greyarea.nl",
    "Website": "",
    "Contact": "",
    "Lat": "52.37467401",
    "Lng": "4.888851643",
    "Icon": "1",
    "Verified": "1",
    "Yelp": "https://www.yelp.nl/biz/grey-area-coffeeshop-amsterdam?osq=Grey+Area",
    "Yelp_Status": "Not Claimed",
    "WMID": "444260699",
    "ID": "2976"
  },
  {
    "Country": "The Netherlands",
    "Name": "Greenhouse Centrum",
    "Address": "Oudezijds Voorburgwal 191",
    "Zip_Code": "",
    "City": "Amsterdam",
    "Phone": "020 6271739",
    "Email": "info@greenhouse.org",
    "Website": "",
    "Contact": "",
    "Lat": "52.37144889",
    "Lng": "4.895750284",
    "Icon": "1",
    "Verified": "1",
    "Yelp": "",
    "Yelp_Status": "",
    "WMID": "699773038",
    "ID": "2980"
  },
  {
    "Country": "The Netherlands",
    "Name": "Kadinsky 2",
    "Address": "Zoutsteeg 14",
    "Zip_Code": "1012 LX",
    "City": "Amsterdam",
    "Phone": "020 6204715",
    "Email": "",
    "Website": "http://www.kadinsky.nl/",
    "Contact": "",
    "Lat": "52.37421715",
    "Lng": "4.893580377",
    "Icon": "1",
    "Verified": "1",
    "Yelp": "https://www.yelp.nl/biz/kadinsky-coffeeshop-amsterdam?osq=Kadinsky",
    "Yelp_Status": "Not Claimed",
    "WMID": "532669677",
    "ID": "2989"
  },
  {
    "Country": "The Netherlands",
    "Name": "Kadinsky 3",
    "Address": "Langebrugsteeg 7a",
    "Zip_Code": "",
    "City": "Amsterdam",
    "Phone": "",
    "Email": "",
    "Website": "http://www.kadinsky.nl/",
    "Contact": "",
    "Lat": "52.36931668",
    "Lng": "4.892979562",
    "Icon": "1",
    "Verified": "1",
    "Yelp": "",
    "Yelp_Status": "",
    "WMID": "404007081",
    "ID": "2991"
  },
  {
    "Country": "The Netherlands",
    "Name": "Prix d'Ami",
    "Address": "Haringpakkerssteeg 3",
    "Zip_Code": "",
    "City": "Amsterdam",
    "Phone": "020 6271019",
    "Email": "",
    "Website": "www.prixdami.nl",
    "Contact": "",
    "Lat": "52.37688619",
    "Lng": "4.897159785",
    "Icon": "1",
    "Verified": "1",
    "Yelp": "https://www.yelp.nl/biz/prix-d-ami-amsterdam?osq=Prix+d%27Ami",
    "Yelp_Status": "Not Claimed",
    "WMID": "825932602",
    "ID": "2994"
  },
  {
    "Country": "The Netherlands",
    "Name": "Get Down To It",
    "Address": "Korte Leidsedwarsstraat 77-79",
    "Zip_Code": "",
    "City": "Amsterdam",
    "Phone": "",
    "Email": "",
    "Website": "",
    "Contact": "",
    "Lat": "52.36401767",
    "Lng": "4.883744717",
    "Icon": "1",
    "Verified": "1",
    "Yelp": "https://www.yelp.nl/biz/get-down-to-it-amsterdam?osq=Get+Down+To+It",
    "Yelp_Status": "Not Claimed",
    "WMID": "451237357",
    "ID": "3000"
  },
  {
    "Country": "The Netherlands",
    "Name": "Central",
    "Address": "Prins Hendrikkade 89",
    "Zip_Code": "",
    "City": "Amsterdam",
    "Phone": "020 6263985",
    "Email": "",
    "Website": "",
    "Contact": "",
    "Lat": "52.37673718",
    "Lng": "4.901967645",
    "Icon": "1",
    "Verified": "1",
    "Yelp": "https://www.yelp.nl/biz/coffee-shop-central-amsterdam?osq=Central",
    "Yelp_Status": "Not Claimed",
    "WMID": "862456941",
    "ID": "33198"
  },
  {
    "Country": "The Netherlands",
    "Name": "Coffeeshop Kashmir",
    "Address": "Jan Pieter Heijestraat 82",
    "Zip_Code": "",
    "City": "Amsterdam",
    "Phone": "020 6180683",
    "Email": "",
    "Website": "",
    "Contact": "",
    "Lat": "52.36401276",
    "Lng": "4.863008559",
    "Icon": "1",
    "Verified": "1",
    "Yelp": "https://www.yelp.nl/biz/kashmir-lounge-amsterdam-3?osq=Coffeeshop+Kashmir",
    "Yelp_Status": "Not Claimed",
    "WMID": "533099791",
    "ID": "36799"
  },
  {
    "Country": "The Netherlands",
    "Name": "The Stud",
    "Address": "Molukkenstraat 581",
    "Zip_Code": "",
    "City": "Amsterdam",
    "Phone": "",
    "Email": "info@thestud.nl",
    "Website": "",
    "Contact": "",
    "Lat": "52.35875979",
    "Lng": "4.941036701",
    "Icon": "1",
    "Verified": "1",
    "Yelp": "https://www.yelp.nl/biz/the-stud-amsterdam?osq=The+Stud",
    "Yelp_Status": "Claimed",
    "WMID": "902823323",
    "ID": "40184"
  },
  {
    "Country": "The Netherlands",
    "Name": "Green Place",
    "Address": "Kloveniersburgwal 42",
    "Zip_Code": "",
    "City": "Amsterdam",
    "Phone": "",
    "Email": "greenplaceamsterdam@outlook.com",
    "Website": "",
    "Contact": "",
    "Lat": "52.37208591",
    "Lng": "4.899309576",
    "Icon": "1",
    "Verified": "1",
    "Yelp": "",
    "Yelp_Status": "",
    "WMID": "219055972",
    "ID": "49881"
  },
  {
    "Country": "The Netherlands",
    "Name": "The Bulldog Palace",
    "Address": "Leidseplein 17",
    "Zip_Code": "",
    "City": "Amsterdam",
    "Phone": "020 6271908",
    "Email": "support@thebulldog.com",
    "Website": "",
    "Contact": "",
    "Lat": "52.36397345",
    "Lng": "4.883326292",
    "Icon": "1",
    "Verified": "1",
    "Yelp": "https://www.yelp.nl/biz/the-bulldog-palace-amsterdam?osq=The+Bulldog+Palace",
    "Yelp_Status": "Not Claimed",
    "WMID": "719176448",
    "ID": "50191"
  },
  {
    "Country": "The Netherlands",
    "Name": "Funky Munkey",
    "Address": "Marnixstraat 333",
    "Zip_Code": "",
    "City": "Amsterdam",
    "Phone": "020 6384014",
    "Email": "",
    "Website": "",
    "Contact": "",
    "Lat": "52.3726918",
    "Lng": "4.876105785",
    "Icon": "1",
    "Verified": "1",
    "Yelp": "",
    "Yelp_Status": "",
    "WMID": "333329874",
    "ID": "50237"
  },
  {
    "Country": "The Netherlands",
    "Name": "Mr. K.",
    "Address": "2e Laurierdwarsstraat 44",
    "Zip_Code": "",
    "City": "Amsterdam",
    "Phone": "020 6241907",
    "Email": "",
    "Website": "",
    "Contact": "",
    "Lat": "52.37184518",
    "Lng": "4.878995866",
    "Icon": "1",
    "Verified": "1",
    "Yelp": "https://www.yelp.nl/biz/mr-k-amsterdam?osq=Mr.+K.",
    "Yelp_Status": "Not Claimed",
    "WMID": "639812257",
    "ID": "50445"
  },
  {
    "Country": "The Netherlands",
    "Name": "Hunter's Filiaal",
    "Address": "Papaverweg 2",
    "Zip_Code": "",
    "City": "Amsterdam",
    "Phone": "020 6376172",
    "Email": "info@hunters-coffeeshop.com",
    "Website": "",
    "Contact": "",
    "Lat": "52.39375795",
    "Lng": "4.912815839",
    "Icon": "1",
    "Verified": "1",
    "Yelp": "",
    "Yelp_Status": "",
    "WMID": "886615986",
    "ID": "52665"
  },
  {
    "Country": "The Netherlands",
    "Name": "Yin Yang",
    "Address": "Knollendamstraat 5",
    "Zip_Code": "",
    "City": "Amsterdam",
    "Phone": "020 4869735",
    "Email": "",
    "Website": "",
    "Contact": "",
    "Lat": "52.39054076",
    "Lng": "4.878051728",
    "Icon": "1",
    "Verified": "1",
    "Yelp": "",
    "Yelp_Status": "",
    "WMID": "273983339",
    "ID": "52668"
  },
  {
    "Country": "The Netherlands",
    "Name": "Best Friends",
    "Address": "Niasstraat 1",
    "Zip_Code": "",
    "City": "Amsterdam",
    "Phone": "020 6928989",
    "Email": "",
    "Website": "",
    "Contact": "",
    "Lat": "52.36510848",
    "Lng": "4.939726442",
    "Icon": "1",
    "Verified": "1",
    "Yelp": "https://www.yelp.nl/biz/bestfriends-coffeeshop-amsterdam-2?osq=Best+Friends",
    "Yelp_Status": "Not Claimed",
    "WMID": "124717507",
    "ID": "52669"
  },
  {
    "Country": "The Netherlands",
    "Name": "Speak Easy",
    "Address": "1e Oosterparkstraat 47",
    "Zip_Code": "",
    "City": "Amsterdam",
    "Phone": "020 4639518",
    "Email": "",
    "Website": "speakeasyamsterdam.com",
    "Contact": "",
    "Lat": "52.35597663",
    "Lng": "4.908823371",
    "Icon": "1",
    "Verified": "1",
    "Yelp": "",
    "Yelp_Status": "",
    "WMID": "412325300",
    "ID": "52670"
  },
  {
    "Country": "The Netherlands",
    "Name": "Bulldog Port 26",
    "Address": "Coenhavenweg 26",
    "Zip_Code": "",
    "City": "Amsterdam",
    "Phone": "020 4751827",
    "Email": "support@thebulldog.com",
    "Website": "",
    "Contact": "",
    "Lat": "52.405409",
    "Lng": "4.857948",
    "Icon": "1",
    "Verified": "1",
    "Yelp": "",
    "Yelp_Status": "",
    "WMID": "850153628",
    "ID": "52684"
  },
  {
    "Country": "The Netherlands",
    "Name": "Boerejongens Centre",
    "Address": "Utrechtsestraat 21",
    "Zip_Code": "",
    "City": "Amsterdam",
    "Phone": "020 4473557",
    "Email": "",
    "Website": "https://www.boerejongens.com/boerejongens-center/",
    "Contact": "",
    "Lat": "52.36485339",
    "Lng": "4.897994623",
    "Icon": "1",
    "Verified": "1",
    "Yelp": "https://www.yelp.nl/biz/boerejongens-coffeeshop-amsterdam?osq=Boerejongens",
    "Yelp_Status": "Claimed",
    "WMID": "806427843",
    "ID": "53101"
  },
  {
    "Country": "The Netherlands",
    "Name": "Boerejongens West",
    "Address": "Baarsjesweg 239",
    "Zip_Code": "",
    "City": "Amsterdam",
    "Phone": "020 6182128",
    "Email": "",
    "Website": "https://www.boerejongens.com/boerejongens-west/",
    "Contact": "",
    "Lat": "52.36231261",
    "Lng": "4.857535511",
    "Icon": "1",
    "Verified": "1",
    "Yelp": "https://www.yelp.nl/biz/boerejongens-coffeeshop-amsterdam-3?osq=Boerejongens+West",
    "Yelp_Status": "Claimed",
    "WMID": "169369165",
    "ID": "53102"
  },
  {
    "Country": "The Netherlands",
    "Name": "Bij",
    "Address": "Bonairestraat 78/HS",
    "Zip_Code": "",
    "City": "Amsterdam",
    "Phone": "020 6832735",
    "Email": "",
    "Website": "https://www.boerejongens.com/boerejongens-bij/",
    "Contact": "",
    "Lat": "52.36207593",
    "Lng": "4.85539645",
    "Icon": "1",
    "Verified": "1",
    "Yelp": "",
    "Yelp_Status": "",
    "WMID": "270223269",
    "ID": "53103"
  },
  {
    "Country": "The Netherlands",
    "Name": "Amnesia",
    "Address": "Herengracht 133",
    "Zip_Code": "",
    "City": "Amsterdam",
    "Phone": "020 4277874",
    "Email": "",
    "Website": "",
    "Contact": "",
    "Lat": "52.37555906",
    "Lng": "4.88907963",
    "Icon": "1",
    "Verified": "1",
    "Yelp": "https://www.yelp.nl/biz/amnesia-amsterdam?osq=Amnesia",
    "Yelp_Status": "Not Claimed",
    "WMID": "180673443",
    "ID": "61477"
  },
  {
    "Country": "The Netherlands",
    "Name": "1e Hulp",
    "Address": "Marnixstraat 194",
    "Zip_Code": "",
    "City": "Amsterdam",
    "Phone": "",
    "Email": "de1ehulp@hotmail.com",
    "Website": "",
    "Contact": "",
    "Lat": "52.37154714",
    "Lng": "4.875860363",
    "Icon": "1",
    "Verified": "1",
    "Yelp": "https://www.yelp.nl/biz/1e-hulp-amsterdam-2?osq=1e+Hulp",
    "Yelp_Status": "Not Claimed",
    "WMID": "289511572",
    "ID": "61478"
  },
  {
    "Country": "The Netherlands",
    "Name": "Coffeeshop 137",
    "Address": "Brouwersgracht 137",
    "Zip_Code": "",
    "City": "Amsterdam",
    "Phone": "020 6270764",
    "Email": "",
    "Website": "",
    "Contact": "",
    "Lat": "52.38142317",
    "Lng": "4.886260629",
    "Icon": "1",
    "Verified": "1",
    "Yelp": "https://www.yelp.nl/biz/coffeeshop-137-amsterdam?osq=Coffeeshop+137",
    "Yelp_Status": "Not Claimed",
    "WMID": "514057362",
    "ID": "61479"
  },
  {
    "Country": "The Netherlands",
    "Name": "Spirit",
    "Address": "Westerstraat 121",
    "Zip_Code": "",
    "City": "Amsterdam",
    "Phone": "020 6254650",
    "Email": "",
    "Website": "",
    "Contact": "",
    "Lat": "52.37816907",
    "Lng": "4.882942736",
    "Icon": "1",
    "Verified": "1",
    "Yelp": "https://www.yelp.nl/biz/the-spirit-coffeeshop-amsterdam?osq=Spirit",
    "Yelp_Status": "Not Claimed",
    "WMID": "993136385",
    "ID": "61480"
  },
  {
    "Country": "The Netherlands",
    "Name": "Paradox",
    "Address": "1e Bloemdwarsstraat 2",
    "Zip_Code": "1016 KS",
    "City": "Amsterdam",
    "Phone": "020 6235639",
    "Email": "ludo@paradoxamsterdam.demon.nl",
    "Website": "",
    "Contact": "",
    "Lat": "52.37455611",
    "Lng": "4.881215394",
    "Icon": "1",
    "Verified": "1",
    "Yelp": "https://www.yelp.nl/biz/paradox-amsterdam?osq=Paradox",
    "Yelp_Status": "Not Claimed",
    "WMID": "764463131",
    "ID": "61481"
  },
  {
    "Country": "The Netherlands",
    "Name": "Happy Feelings",
    "Address": "Kerkstraat 51",
    "Zip_Code": "",
    "City": "Amsterdam",
    "Phone": "020 7779898",
    "Email": "",
    "Website": "happyfeelingsamsterdam.com",
    "Contact": "",
    "Lat": "52.3652305",
    "Lng": "4.885850251",
    "Icon": "1",
    "Verified": "1",
    "Yelp": "https://www.yelp.nl/biz/happy-feelings-amsterdam?osq=Happy+Feelings",
    "Yelp_Status": "Not Claimed",
    "WMID": "505661523",
    "ID": "61482"
  },
  {
    "Country": "The Netherlands",
    "Name": "De Kroon",
    "Address": "Oudebrugsteeg 26",
    "Zip_Code": "",
    "City": "Amsterdam",
    "Phone": "020 7723303",
    "Email": "info@coffeeshopdekroon.com",
    "Website": "",
    "Contact": "",
    "Lat": "52.37597087",
    "Lng": "4.896006435",
    "Icon": "1",
    "Verified": "1",
    "Yelp": "https://www.yelp.nl/biz/de-kroon-amsterdam?osq=De+Kroon",
    "Yelp_Status": "Not Claimed",
    "WMID": "712131596",
    "ID": "61485"
  },
  {
    "Country": "The Netherlands",
    "Name": "Feels Good",
    "Address": "Oudezijds Voorburgwal 36",
    "Zip_Code": "",
    "City": "Amsterdam",
    "Phone": "020 6221055",
    "Email": "",
    "Website": "",
    "Contact": "",
    "Lat": "52.375189",
    "Lng": "4.89948526",
    "Icon": "1",
    "Verified": "1",
    "Yelp": "https://www.yelp.nl/biz/feels-good-amsterdam?osq=Feels+Good",
    "Yelp_Status": "Not Claimed",
    "WMID": "854190569",
    "ID": "61486"
  },
  {
    "Country": "The Netherlands",
    "Name": "Babylon",
    "Address": "Beursstraat 27",
    "Zip_Code": "",
    "City": "Amsterdam",
    "Phone": "020 4270609",
    "Email": "babyloncoffeeshop.business.site",
    "Website": "",
    "Contact": "",
    "Lat": "52.3747829",
    "Lng": "4.896616638",
    "Icon": "1",
    "Verified": "1",
    "Yelp": "https://www.yelp.nl/biz/coffeeshop-babylon-amsterdam?osq=Babylon",
    "Yelp_Status": "Not Claimed",
    "WMID": "398572196",
    "ID": "61487"
  },
  {
    "Country": "The Netherlands",
    "Name": "El Guapo",
    "Address": "Nieuwe Nieuwstraat 32",
    "Zip_Code": "",
    "City": "Amsterdam",
    "Phone": "020 4200542",
    "Email": "",
    "Website": "www.elguapo.shop",
    "Contact": "",
    "Lat": "52.37536175",
    "Lng": "4.893585742",
    "Icon": "1",
    "Verified": "1",
    "Yelp": "https://www.yelp.nl/biz/el-guapo-amsterdam?osq=el+guapo",
    "Yelp_Status": "Not Claimed",
    "WMID": "344417613",
    "ID": "61488"
  },
  {
    "Country": "The Netherlands",
    "Name": "Mediterrane",
    "Address": "Spuistraat 80",
    "Zip_Code": "",
    "City": "Amsterdam",
    "Phone": "020 6200140",
    "Email": "info@coffeeshopmediterranee.nl",
    "Website": "",
    "Contact": "",
    "Lat": "52.37559672",
    "Lng": "4.891557992",
    "Icon": "1",
    "Verified": "1",
    "Yelp": "",
    "Yelp_Status": "",
    "WMID": "921199863",
    "ID": "61489"
  },
  {
    "Country": "The Netherlands",
    "Name": "Green Planet",
    "Address": "Spuistraat 118",
    "Zip_Code": "",
    "City": "Amsterdam",
    "Phone": "020 6229644",
    "Email": "",
    "Website": "",
    "Contact": "",
    "Lat": "52.37459869",
    "Lng": "4.890287966",
    "Icon": "1",
    "Verified": "1",
    "Yelp": "",
    "Yelp_Status": "",
    "WMID": "267632146",
    "ID": "61490"
  },
  {
    "Country": "The Netherlands",
    "Name": "Barraka",
    "Address": "Gravenstraat 9",
    "Zip_Code": "",
    "City": "Amsterdam",
    "Phone": "",
    "Email": "",
    "Website": "",
    "Contact": "",
    "Lat": "52.37423353",
    "Lng": "4.892606735",
    "Icon": "1",
    "Verified": "1",
    "Yelp": "https://www.yelp.nl/biz/koffiehuis-barraka-amsterdam?osq=Barraka",
    "Yelp_Status": "Not Claimed",
    "WMID": "542780808",
    "ID": "61491"
  },
  {
    "Country": "The Netherlands",
    "Name": "The Jolly Joker",
    "Address": "Nieuwmarkt 4a",
    "Zip_Code": "",
    "City": "Amsterdam",
    "Phone": "020 2235565",
    "Email": "",
    "Website": "",
    "Contact": "",
    "Lat": "52.37305779",
    "Lng": "4.900154471",
    "Icon": "1",
    "Verified": "1",
    "Yelp": "https://www.yelp.nl/biz/the-jolly-joker-amsterdam?osq=The+Jolly+Joker",
    "Yelp_Status": "Not Claimed",
    "WMID": "760493085",
    "ID": "61492"
  },
  {
    "Country": "The Netherlands",
    "Name": "The Greenhouse Effect",
    "Address": "Nieuwmarkt 14",
    "Zip_Code": "",
    "City": "Amsterdam",
    "Phone": "020 4277878",
    "Email": "",
    "Website": "greenhouse-effect.business.site",
    "Contact": "",
    "Lat": "52.37281462",
    "Lng": "4.899850041",
    "Icon": "1",
    "Verified": "1",
    "Yelp": "https://www.yelp.nl/biz/coffeeshop-the-greenhouse-effect-amsterdam?osq=The+Greenhouse+Effect",
    "Yelp_Status": "Not Claimed",
    "WMID": "511931661",
    "ID": "61493"
  },
  {
    "Country": "The Netherlands",
    "Name": "Goa",
    "Address": "Kloveniersburgwal 42",
    "Zip_Code": "",
    "City": "Amsterdam",
    "Phone": "020 3309722",
    "Email": "",
    "Website": "",
    "Contact": "",
    "Lat": "52.37121962",
    "Lng": "4.898578674",
    "Icon": "1",
    "Verified": "1",
    "Yelp": "https://www.yelp.nl/biz/goa-coffee-shop-amsterdam?osq=Goa",
    "Yelp_Status": "Not Claimed",
    "WMID": "565748666",
    "ID": "61494"
  },
  {
    "Country": "The Netherlands",
    "Name": "The Bulldog Energy",
    "Address": "Oudezijds Voorburgwal 220",
    "Zip_Code": "",
    "City": "Amsterdam",
    "Phone": "020 6382593",
    "Email": "support@thebulldog.com",
    "Website": "",
    "Contact": "",
    "Lat": "52.37249448",
    "Lng": "4.896241128",
    "Icon": "1",
    "Verified": "1",
    "Yelp": "https://www.yelp.nl/biz/the-bulldog-energy-amsterdam?osq=The+Bulldog+Energy",
    "Yelp_Status": "Claimed",
    "WMID": "675364037",
    "ID": "61495"
  },
  {
    "Country": "The Netherlands",
    "Name": "City Hall",
    "Address": "Oudezijds Voorburgwal 189",
    "Zip_Code": "",
    "City": "Amsterdam",
    "Phone": "020 6263985",
    "Email": "",
    "Website": "",
    "Contact": "",
    "Lat": "52.37148737",
    "Lng": "4.895790517",
    "Icon": "1",
    "Verified": "1",
    "Yelp": "https://www.yelp.nl/biz/caf%C3%A9-city-hall-amsterdam-3?osq=City+Hall",
    "Yelp_Status": "Not Claimed",
    "WMID": "112232559",
    "ID": "61496"
  },
  {
    "Country": "The Netherlands",
    "Name": "New Times",
    "Address": "Spuistraat 260",
    "Zip_Code": "",
    "City": "Amsterdam",
    "Phone": "0626-298782",
    "Email": "",
    "Website": "newtimes-amsterdam.com",
    "Contact": "",
    "Lat": "52.37058586",
    "Lng": "4.888929427",
    "Icon": "1",
    "Verified": "1",
    "Yelp": "https://www.yelp.nl/biz/coffeeshop-new-times-amsterdam-2?osq=New+Times",
    "Yelp_Status": "Not Claimed",
    "WMID": "418750322",
    "ID": "61497"
  },
  {
    "Country": "The Netherlands",
    "Name": "Bagheera",
    "Address": "Kloveniersburgwal 60",
    "Zip_Code": "",
    "City": "Amsterdam",
    "Phone": "",
    "Email": "",
    "Website": "",
    "Contact": "",
    "Lat": "52.37002088",
    "Lng": "4.897410572",
    "Icon": "1",
    "Verified": "1",
    "Yelp": "",
    "Yelp_Status": "",
    "WMID": "568756883",
    "ID": "61498"
  },
  {
    "Country": "The Netherlands",
    "Name": "Resin",
    "Address": "Hekelveld 7",
    "Zip_Code": "",
    "City": "Amsterdam",
    "Phone": "020 4229838",
    "Email": "",
    "Website": "",
    "Contact": "",
    "Lat": "52.37777528",
    "Lng": "4.895347953",
    "Icon": "1",
    "Verified": "1",
    "Yelp": "",
    "Yelp_Status": "",
    "WMID": "628651017",
    "ID": "61499"
  },
  {
    "Country": "The Netherlands",
    "Name": "Los Angeles",
    "Address": "3e Oosterparkstraat 142",
    "Zip_Code": "",
    "City": "Amsterdam",
    "Phone": "020 7772776",
    "Email": "",
    "Website": "",
    "Contact": "",
    "Lat": "52.35711105",
    "Lng": "4.919402003",
    "Icon": "1",
    "Verified": "1",
    "Yelp": "",
    "Yelp_Status": "",
    "WMID": "537580367",
    "ID": "61520"
  },
  {
    "Country": "The Netherlands",
    "Name": "Superskunk",
    "Address": "Daniel Stalpertstraat 78",
    "Zip_Code": "",
    "City": "Amsterdam",
    "Phone": "020 6732353",
    "Email": "",
    "Website": "",
    "Contact": "",
    "Lat": "52.356095",
    "Lng": "4.891048",
    "Icon": "1",
    "Verified": "1",
    "Yelp": "",
    "Yelp_Status": "",
    "WMID": "688636131",
    "ID": "61521"
  },
  {
    "Country": "The Netherlands",
    "Name": "Atlas",
    "Address": "Parlevinker 8",
    "Zip_Code": "",
    "City": "Amsterdam",
    "Phone": "",
    "Email": "",
    "Website": "",
    "Contact": "",
    "Lat": "52.41165401",
    "Lng": "4.922186136",
    "Icon": "1",
    "Verified": "1",
    "Yelp": "",
    "Yelp_Status": "",
    "WMID": "144349419",
    "ID": "61522"
  },
  {
    "Country": "The Netherlands",
    "Name": "Baba",
    "Address": "Barentszstraat 130",
    "Zip_Code": "",
    "City": "Amsterdam",
    "Phone": "020 2336425",
    "Email": "coffeeshopbaba@gmail.com",
    "Website": "",
    "Contact": "",
    "Lat": "52.38912974",
    "Lng": "4.887572229",
    "Icon": "1",
    "Verified": "1",
    "Yelp": "",
    "Yelp_Status": "",
    "WMID": "844741946",
    "ID": "61524"
  },
  {
    "Country": "The Netherlands",
    "Name": "Blue Lagoon",
    "Address": "Overtoom 342",
    "Zip_Code": "",
    "City": "Amsterdam",
    "Phone": "020 2213399",
    "Email": "",
    "Website": "",
    "Contact": "",
    "Lat": "52.36061404",
    "Lng": "4.866207093",
    "Icon": "1",
    "Verified": "1",
    "Yelp": "https://www.yelp.nl/biz/blue-lagoon-amsterdam?osq=Blue+Lagoon",
    "Yelp_Status": "Not Claimed",
    "WMID": "223768042",
    "ID": "61524"
  },
  {
    "Country": "The Netherlands",
    "Name": "Blue Sea",
    "Address": "Van Woustraat 87",
    "Zip_Code": "",
    "City": "Amsterdam",
    "Phone": "020 6761991",
    "Email": "",
    "Website": "",
    "Contact": "",
    "Lat": "52.3546071",
    "Lng": "4.901631028",
    "Icon": "1",
    "Verified": "1",
    "Yelp": "https://www.yelp.nl/biz/coffeeshop-blue-sea-amsterdam?osq=Blue+Sea",
    "Yelp_Status": "Not Claimed",
    "WMID": "799558315",
    "ID": "61525"
  },
  {
    "Country": "The Netherlands",
    "Name": "De Bommel",
    "Address": "Balboastraat 19",
    "Zip_Code": "",
    "City": "Amsterdam",
    "Phone": "",
    "Email": "",
    "Website": "",
    "Contact": "",
    "Lat": "52.36890071",
    "Lng": "4.853698611",
    "Icon": "1",
    "Verified": "1",
    "Yelp": "https://www.yelp.nl/biz/bommel-coffeeshop-amsterdam?osq=Bommel",
    "Yelp_Status": "Not Claimed",
    "WMID": "794048959",
    "ID": "61526"
  },
  {
    "Country": "The Netherlands",
    "Name": "The Border",
    "Address": "Amstelveenseweg 1160",
    "Zip_Code": "",
    "City": "Amsterdam",
    "Phone": "20 6420681",
    "Email": "info@theborder.nl",
    "Website": "",
    "Contact": "",
    "Lat": "52.32201417",
    "Lng": "4.857054055",
    "Icon": "1",
    "Verified": "1",
    "Yelp": "https://www.yelp.nl/biz/the-border-amsterdam?osq=The+Border",
    "Yelp_Status": "Claimed",
    "WMID": "421694785",
    "ID": "61527"
  },
  {
    "Country": "The Netherlands",
    "Name": "Hunter's Bros",
    "Address": "Katrijpstraat 301",
    "Zip_Code": "",
    "City": "Amsterdam",
    "Phone": "",
    "Email": "info@hunters-coffeeshop.com",
    "Website": "",
    "Contact": "",
    "Lat": "52.39386761",
    "Lng": "4.95289743",
    "Icon": "1",
    "Verified": "1",
    "Yelp": "https://www.yelp.nl/biz/coffeeshop-bros-amsterdam",
    "Yelp_Status": "Not Claimed",
    "WMID": "734767368",
    "ID": "61528"
  },
  {
    "Country": "The Netherlands",
    "Name": "The Bulldog Rockshop",
    "Address": "Singel 12",
    "Zip_Code": "",
    "City": "Amsterdam",
    "Phone": "020 6278900",
    "Email": "support@thebulldog.com",
    "Website": "",
    "Contact": "",
    "Lat": "52.37909088",
    "Lng": "4.893833846",
    "Icon": "1",
    "Verified": "1",
    "Yelp": "https://www.yelp.nl/biz/the-bulldog-rockshop-amsterdam?osq=The+Bulldog+Rockshop",
    "Yelp_Status": "Not Claimed",
    "WMID": "358897738",
    "ID": "61529"
  },
  {
    "Country": "The Netherlands",
    "Name": "Bullwackie",
    "Address": "Woestduinstraat 76",
    "Zip_Code": "",
    "City": "Amsterdam",
    "Phone": "020 6179395",
    "Email": "bullwackie.business.site",
    "Website": "",
    "Contact": "",
    "Lat": "52.35206123",
    "Lng": "4.847435653",
    "Icon": "1",
    "Verified": "1",
    "Yelp": "https://www.yelp.nl/biz/coffeeshop-bullwackie-amsterdam?osq=Bullwackie",
    "Yelp_Status": "Not Claimed",
    "WMID": "704274441",
    "ID": "61530"
  },
  {
    "Country": "The Netherlands",
    "Name": "Carmona",
    "Address": "2e Jan van der Heijdenstraat 43",
    "Zip_Code": "",
    "City": "Amsterdam",
    "Phone": "020 4004026",
    "Email": "coffeeshopcarmona@yahoo.com",
    "Website": "",
    "Contact": "",
    "Lat": "52.35567602",
    "Lng": "4.901069775",
    "Icon": "1",
    "Verified": "1",
    "Yelp": "https://www.yelp.nl/biz/coffeeshop-carmona-amsterdam?osq=Carmona",
    "Yelp_Status": "Claimed",
    "WMID": "675328893",
    "ID": "61533"
  },
  {
    "Country": "The Netherlands",
    "Name": "The Dream",
    "Address": "Witte de Withstraat 30-A",
    "Zip_Code": "",
    "City": "Amsterdam",
    "Phone": "020 6853847",
    "Email": "",
    "Website": "",
    "Contact": "",
    "Lat": "52.3659495",
    "Lng": "4.859504253",
    "Icon": "1",
    "Verified": "1",
    "Yelp": "",
    "Yelp_Status": "",
    "WMID": "838246894",
    "ID": "61534"
  },
  {
    "Country": "The Netherlands",
    "Name": "Catch 33",
    "Address": "Nassaukade 33",
    "Zip_Code": "",
    "City": "Amsterdam",
    "Phone": "020 4862444",
    "Email": "",
    "Website": "",
    "Contact": "",
    "Lat": "52.38266745",
    "Lng": "4.879817963",
    "Icon": "1",
    "Verified": "1",
    "Yelp": "https://www.yelp.nl/biz/coffeeshop-catch-33-amsterdam?osq=Catch+33",
    "Yelp_Status": "Not Claimed",
    "WMID": "299867752",
    "ID": "61535"
  },
  {
    "Country": "The Netherlands",
    "Name": "2e Cheech and Chong's",
    "Address": "De Clercqstraat 30",
    "Zip_Code": "",
    "City": "Amsterdam",
    "Phone": "020 6854810",
    "Email": "",
    "Website": "",
    "Contact": "",
    "Lat": "52.3713187",
    "Lng": "4.871465564",
    "Icon": "1",
    "Verified": "1",
    "Yelp": "",
    "Yelp_Status": "",
    "WMID": "727874057",
    "ID": "61536"
  },
  {
    "Country": "The Netherlands",
    "Name": "t Keteltje",
    "Address": "Marnixstraat 74",
    "Zip_Code": "",
    "City": "Amsterdam",
    "Phone": "020 6226998",
    "Email": "",
    "Website": "",
    "Contact": "",
    "Lat": "52.379614",
    "Lng": "4.879603386",
    "Icon": "1",
    "Verified": "1",
    "Yelp": "https://www.yelp.nl/biz/t-keteltje-coffeeshop-amsterdam?osq=t+Keteltje",
    "Yelp_Status": "Claimed",
    "WMID": "434911719",
    "ID": "8655"
  },
  {
    "Country": "The Netherlands",
    "Name": "Bronx",
    "Address": "Marnixstraat 92",
    "Zip_Code": "",
    "City": "Amsterdam",
    "Phone": "020 5287292",
    "Email": "",
    "Website": "",
    "Contact": "",
    "Lat": "52.37914573",
    "Lng": "4.879313707",
    "Icon": "1",
    "Verified": "1",
    "Yelp": "https://www.yelp.nl/biz/coffeeshop-bronx-amsterdam?osq=Bronx",
    "Yelp_Status": "Not Claimed",
    "WMID": "702544861",
    "ID": "8656"
  },
  {
    "Country": "The Netherlands",
    "Name": "Black Star",
    "Address": "Rozengracht 1a",
    "Zip_Code": "",
    "City": "Amsterdam",
    "Phone": "020 6269469",
    "Email": "info@coffeeshopafricanblackstar.nl",
    "Website": "",
    "Contact": "",
    "Lat": "52.3737038",
    "Lng": "4.882567227",
    "Icon": "1",
    "Verified": "1",
    "Yelp": "https://www.yelp.nl/biz/the-african-blackstar-coffeeshop-amsterdam?osq=Black+Star",
    "Yelp_Status": "Not Claimed",
    "WMID": "969089112",
    "ID": "8658"
  },
  {
    "Country": "The Netherlands",
    "Name": "Crush",
    "Address": "Marnixstraat 383",
    "Zip_Code": "",
    "City": "Amsterdam",
    "Phone": "020 4204435",
    "Email": "",
    "Website": "",
    "Contact": "",
    "Lat": "52.36572921",
    "Lng": "4.880147874",
    "Icon": "1",
    "Verified": "1",
    "Yelp": "",
    "Yelp_Status": "",
    "WMID": "833327107",
    "ID": "8663"
  },
  {
    "Country": "The Netherlands",
    "Name": "Noon",
    "Address": "Zieseniskade 22",
    "Zip_Code": "",
    "City": "Amsterdam",
    "Phone": "020 6250720",
    "Email": "",
    "Website": "",
    "Contact": "",
    "Lat": "52.36166276",
    "Lng": "4.88626264",
    "Icon": "1",
    "Verified": "1",
    "Yelp": "https://www.yelp.nl/biz/the-noon-amsterdam?osq=Noon",
    "Yelp_Status": "Not Claimed",
    "WMID": "391739380",
    "ID": "8670"
  },
  {
    "Country": "The Netherlands",
    "Name": "The Rookies",
    "Address": "Korte Leidsedwarsstraat 145-147",
    "Zip_Code": "",
    "City": "Amsterdam",
    "Phone": "020 6390978",
    "Email": "mark@rookies.nl",
    "Website": "",
    "Contact": "",
    "Lat": "52.36295591",
    "Lng": "4.885259494",
    "Icon": "1",
    "Verified": "1",
    "Yelp": "https://www.yelp.nl/biz/the-rookies-amsterdam?osq=The+Rookies",
    "Yelp_Status": "Claimed",
    "WMID": "388209116",
    "ID": "8671"
  },
  {
    "Country": "The Netherlands",
    "Name": "The Dolphins",
    "Address": "Kerkstraat 39",
    "Zip_Code": "",
    "City": "Amsterdam",
    "Phone": "020 6259162",
    "Email": "",
    "Website": "",
    "Contact": "",
    "Lat": "52.3656203",
    "Lng": "4.885249436",
    "Icon": "1",
    "Verified": "1",
    "Yelp": "https://www.yelp.nl/biz/the-dolphins-amsterdam-2?osq=The+Dolphins",
    "Yelp_Status": "Claimed",
    "WMID": "814334563",
    "ID": "8676"
  },
  {
    "Country": "The Netherlands",
    "Name": "SuperSkunk / Tops",
    "Address": "Prinsengracht 480",
    "Zip_Code": "1017 KG",
    "City": "Amsterdam",
    "Phone": "020 6273436",
    "Email": "",
    "Website": "cafetops.tripod.com",
    "Contact": "",
    "Lat": "52.36426089",
    "Lng": "4.885105938",
    "Icon": "1",
    "Verified": "1",
    "Yelp": "https://www.yelp.nl/biz/coffeeshop-superskunk-amsterdam?osq=Superskunk",
    "Yelp_Status": "Not Claimed",
    "WMID": "121874484",
    "ID": "8679"
  },
  {
    "Country": "The Netherlands",
    "Name": "Easy Times",
    "Address": "Prinsengracht 476",
    "Zip_Code": "",
    "City": "Amsterdam",
    "Phone": "020 6265709",
    "Email": "easytimescoffeshop@gmail.com",
    "Website": "",
    "Contact": "",
    "Lat": "52.36434934",
    "Lng": "4.884988591",
    "Icon": "1",
    "Verified": "1",
    "Yelp": "https://www.yelp.nl/biz/easy-times-amsterdam?osq=Easy+Times",
    "Yelp_Status": "Claimed",
    "WMID": "318697920",
    "ID": "8681"
  },
  {
    "Country": "The Netherlands",
    "Name": "Barney's Lounge",
    "Address": "Reguliersgracht 27",
    "Zip_Code": "",
    "City": "Amsterdam",
    "Phone": "020 4206655",
    "Email": "info@barneys.biz",
    "Website": "",
    "Contact": "",
    "Lat": "52.36391653",
    "Lng": "4.896190167",
    "Icon": "1",
    "Verified": "1",
    "Yelp": "https://www.yelp.nl/biz/barneys-lounge-amsterdam-2?osq=Barney%27s+Lounge",
    "Yelp_Status": "Not Claimed",
    "WMID": "950752444",
    "ID": "8682"
  },
  {
    "Country": "The Netherlands",
    "Name": "The Bushdocter",
    "Address": "Thorbeckeplein 28",
    "Zip_Code": "",
    "City": "Amsterdam",
    "Phone": "020 3307475",
    "Email": "",
    "Website": "https://thebushdocter.com/thorbeckeplein/",
    "Contact": "",
    "Lat": "52.3651052",
    "Lng": "4.895579293",
    "Icon": "1",
    "Verified": "1",
    "Yelp": "https://www.yelp.nl/biz/the-bushdocter-amsterdam?osq=The+Bushdocter",
    "Yelp_Status": "Not Claimed",
    "WMID": "414187507",
    "ID": "8683"
  },
  {
    "Country": "The Netherlands",
    "Name": "Het Ballonnetje",
    "Address": "Roetersstraat 12",
    "Zip_Code": "",
    "City": "Amsterdam",
    "Phone": "020 6228027",
    "Email": "",
    "Website": "",
    "Contact": "",
    "Lat": "52.36346243",
    "Lng": "4.910491705",
    "Icon": "1",
    "Verified": "1",
    "Yelp": "https://www.yelp.nl/biz/koffiehuis-t-ballonnetje-amsterdam?osq=Het+Ballonnetje",
    "Yelp_Status": "Not Claimed",
    "WMID": "901151363",
    "ID": "8685"
  },
  {
    "Country": "The Netherlands",
    "Name": "Greenhouse Namaste",
    "Address": "Waterlooplein 345",
    "Zip_Code": "",
    "City": "Amsterdam",
    "Phone": "020 6225499",
    "Email": "info@greenhouse.org",
    "Website": "",
    "Contact": "",
    "Lat": "52.3666431",
    "Lng": "4.902213067",
    "Icon": "1",
    "Verified": "1",
    "Yelp": "https://www.yelp.nl/biz/namaste-green-house-amsterdam?osq=Green+Place",
    "Yelp_Status": "Not Claimed",
    "WMID": "834808786",
    "ID": "8687"
  },
  {
    "Country": "The Netherlands",
    "Name": "Reefer",
    "Address": "Sint Antoniesbreestraat 77",
    "Zip_Code": "",
    "City": "Amsterdam",
    "Phone": "020 6233615",
    "Email": "",
    "Website": "",
    "Contact": "",
    "Lat": "52.36977933",
    "Lng": "4.9010396",
    "Icon": "1",
    "Verified": "1",
    "Yelp": "",
    "Yelp_Status": "",
    "WMID": "201112507",
    "ID": "8688"
  },
  {
    "Country": "The Netherlands",
    "Name": "Betty Boop",
    "Address": "Reguliersdwarsstraat 29",
    "Zip_Code": "",
    "City": "Amsterdam",
    "Phone": "020 6270333",
    "Email": "",
    "Website": "",
    "Contact": "",
    "Lat": "52.36655384",
    "Lng": "4.89023298",
    "Icon": "1",
    "Verified": "1",
    "Yelp": "https://www.yelp.com/biz/coffeeshop-betty-boop-amsterdam?osq=Betty+Boop",
    "Yelp_Status": "Not Claimed",
    "WMID": "963274181",
    "ID": "8698"
  },
  {
    "Country": "The Netherlands",
    "Name": "The Otherside",
    "Address": "Reguliersdwarsstraat 6",
    "Zip_Code": "",
    "City": "Amsterdam",
    "Phone": "020 6255141",
    "Email": "",
    "Website": "www.theotherside.nl",
    "Contact": "",
    "Lat": "52.36677822",
    "Lng": "4.889240563",
    "Icon": "1",
    "Verified": "1",
    "Yelp": "https://www.yelp.nl/biz/the-otherside-amsterdam?osq=The+Otherside",
    "Yelp_Status": "Not Claimed",
    "WMID": "146299136",
    "ID": "8699"
  },
  {
    "Country": "The Netherlands",
    "Name": "Best Friends II",
    "Address": "Huidenstraat 13a",
    "Zip_Code": "",
    "City": "Amsterdam",
    "Phone": "020 7772799",
    "Email": "bestfriendsamsterdam.nl",
    "Website": "",
    "Contact": "",
    "Lat": "52.36875086",
    "Lng": "4.885721505",
    "Icon": "1",
    "Verified": "1",
    "Yelp": "https://www.yelp.nl/biz/best-friends-ii-amsterdam?osq=Best+Friends+II",
    "Yelp_Status": "Not Claimed",
    "WMID": "257418040",
    "ID": "8701"
  },
  {
    "Country": "The Netherlands",
    "Name": "La Tertulia",
    "Address": "Prinsengracht 312",
    "Zip_Code": "",
    "City": "Amsterdam",
    "Phone": "020 6238503",
    "Email": "",
    "Website": "www.coffeeshoptertulia.com",
    "Contact": "",
    "Lat": "52.36948864",
    "Lng": "4.882297665",
    "Icon": "1",
    "Verified": "1",
    "Yelp": "https://www.yelp.nl/biz/la-tertulia-amsterdam?osq=La+Tertulia",
    "Yelp_Status": "Not Claimed",
    "WMID": "632834882",
    "ID": "8702"
  },
  {
    "Country": "The Netherlands",
    "Name": "Free I",
    "Address": "Reguliersdwarsstraat 70",
    "Zip_Code": "",
    "City": "Amsterdam",
    "Phone": "020 6227727",
    "Email": "",
    "Website": "",
    "Contact": "",
    "Lat": "52.36596997",
    "Lng": "4.893430173",
    "Icon": "1",
    "Verified": "1",
    "Yelp": "",
    "Yelp_Status": "",
    "WMID": "823951862",
    "ID": "8703"
  },
  {
    "Country": "The Netherlands",
    "Name": "Johnny",
    "Address": "Elandsgracht 3",
    "Zip_Code": "",
    "City": "Amsterdam",
    "Phone": "020 6383984",
    "Email": "",
    "Website": "www.coffeeshopjohnny.nl",
    "Contact": "",
    "Lat": "52.36993081",
    "Lng": "4.88210991",
    "Icon": "1",
    "Verified": "1",
    "Yelp": "",
    "Yelp_Status": "",
    "WMID": "406408997",
    "ID": "8706"
  },
  {
    "Country": "The Netherlands",
    "Name": "Old Church 2",
    "Address": "Amstel 8",
    "Zip_Code": "",
    "City": "Amsterdam",
    "Phone": "020 6200484",
    "Email": "",
    "Website": "",
    "Contact": "",
    "Lat": "52.36694772",
    "Lng": "4.894124866",
    "Icon": "1",
    "Verified": "1",
    "Yelp": "",
    "Yelp_Status": "",
    "WMID": "955163090",
    "ID": "8708"
  },
  {
    "Country": "The Netherlands",
    "Name": "Balou",
    "Address": "Halvemaansteeg 5",
    "Zip_Code": "",
    "City": "Amsterdam",
    "Phone": "020 6275653",
    "Email": "mail@coffeeshopbalou.com",
    "Website": "",
    "Contact": "",
    "Lat": "52.36674464",
    "Lng": "4.895875007",
    "Icon": "1",
    "Verified": "1",
    "Yelp": "https://www.yelp.nl/biz/coffeeshop-balou-amsterdam?osq=Balou",
    "Yelp_Status": "Not Claimed",
    "WMID": "243217891",
    "ID": "8709"
  },
  {
    "Country": "The Netherlands",
    "Name": "Andalucia",
    "Address": "Halvemaansteeg 1",
    "Zip_Code": "",
    "City": "Amsterdam",
    "Phone": "020 6253668",
    "Email": "",
    "Website": "",
    "Contact": "",
    "Lat": "52.36681588",
    "Lng": "4.89586696",
    "Icon": "1",
    "Verified": "1",
    "Yelp": "",
    "Yelp_Status": "",
    "WMID": "993663693",
    "ID": "8710"
  },
  {
    "Country": "The Netherlands",
    "Name": "Bushdocter Amstel",
    "Address": "Amstel 36",
    "Zip_Code": "",
    "City": "Amsterdam",
    "Phone": "",
    "Email": "",
    "Website": "",
    "Contact": "",
    "Lat": "52.36687976",
    "Lng": "4.895386845",
    "Icon": "1",
    "Verified": "1",
    "Yelp": "",
    "Yelp_Status": "",
    "WMID": "620165849",
    "ID": "8715"
  },
  {
    "Country": "The Netherlands",
    "Name": "Kadinsky",
    "Address": "Rosmarijnsteeg 9",
    "Zip_Code": "",
    "City": "Amsterdam",
    "Phone": "020 6247023",
    "Email": "",
    "Website": "",
    "Contact": "",
    "Lat": "52.37033367",
    "Lng": "4.889329076",
    "Icon": "1",
    "Verified": "1",
    "Yelp": "https://www.yelp.nl/biz/kadinsky-amsterdam?osq=Kadinsky",
    "Yelp_Status": "Not Claimed",
    "WMID": "113689823",
    "ID": "8721"
  },
  {
    "Country": "The Netherlands",
    "Name": "Tweede Kamer",
    "Address": "Heisteeg 6",
    "Zip_Code": "",
    "City": "Amsterdam",
    "Phone": "020 4222236",
    "Email": "",
    "Website": "",
    "Contact": "",
    "Lat": "52.36883602",
    "Lng": "4.88836214",
    "Icon": "1",
    "Verified": "1",
    "Yelp": "https://www.yelp.nl/biz/de-tweede-kamer-amsterdam?osq=Tweede+Kamer",
    "Yelp_Status": "Not Claimed",
    "WMID": "772869706",
    "ID": "8722"
  },
  {
    "Country": "The Netherlands",
    "Name": "Rusland",
    "Address": "Rusland 16",
    "Zip_Code": "",
    "City": "Amsterdam",
    "Phone": "020 6279468",
    "Email": "",
    "Website": "coffeeshop-rusland-amsterdam.com",
    "Contact": "",
    "Lat": "52.37001924",
    "Lng": "4.896313548",
    "Icon": "1",
    "Verified": "1",
    "Yelp": "https://www.yelp.nl/biz/coffeeshop-rusland-amsterdam?osq=Rusland",
    "Yelp_Status": "Claimed",
    "WMID": "464677197",
    "ID": "8723"
  },
  {
    "Country": "The Netherlands",
    "Name": "Basjoe",
    "Address": "Kloveniersburgwal 62",
    "Zip_Code": "",
    "City": "Amsterdam",
    "Phone": "020 6273858",
    "Email": "",
    "Website": "",
    "Contact": "",
    "Lat": "52.36997912",
    "Lng": "4.897379726",
    "Icon": "1",
    "Verified": "1",
    "Yelp": "https://www.yelp.nl/biz/koffiehuis-basjoe-amsterdam?osq=Basjoe",
    "Yelp_Status": "Not Claimed",
    "WMID": "115506840",
    "ID": "8724"
  },
  {
    "Country": "The Netherlands",
    "Name": "Solo",
    "Address": "Korte Koningsstraat 2",
    "Zip_Code": "",
    "City": "Amsterdam",
    "Phone": "020 6240645",
    "Email": "",
    "Website": "",
    "Contact": "",
    "Lat": "52.37187056",
    "Lng": "4.902656972",
    "Icon": "1",
    "Verified": "1",
    "Yelp": "",
    "Yelp_Status": "",
    "WMID": "575403649",
    "ID": "8726"
  },
  {
    "Country": "The Netherlands",
    "Name": "Softland",
    "Address": "Spuistraat 222",
    "Zip_Code": "",
    "City": "Amsterdam",
    "Phone": "020 4209799",
    "Email": "",
    "Website": "",
    "Contact": "",
    "Lat": "52.37149638",
    "Lng": "4.889157414",
    "Icon": "1",
    "Verified": "1",
    "Yelp": "https://www.yelp.nl/biz/coffeeshop-softland-1-amsterdam?osq=Softland",
    "Yelp_Status": "Not Claimed",
    "WMID": "816154210",
    "ID": "8728"
  },
  {
    "Country": "The Netherlands",
    "Name": "Greenhouse Lounge",
    "Address": "Haarlemmerstraat 64",
    "Zip_Code": "",
    "City": "Amsterdam",
    "Phone": "020 6277329",
    "Email": "",
    "Website": "",
    "Contact": "",
    "Lat": "52.38030493",
    "Lng": "4.892149419",
    "Icon": "1",
    "Verified": "1",
    "Yelp": "https://www.yelp.nl/biz/greenhouse-lounge-amsterdam?osq=Greenhouse+Lounge",
    "Yelp_Status": "Not Claimed",
    "WMID": "649190251",
    "ID": "8745"
  },
  {
    "Country": "The Netherlands",
    "Name": "Coffeeshop Amsterdam",
    "Address": "Haarlemmerstraat 44",
    "Zip_Code": "",
    "City": "Amsterdam",
    "Phone": "020 3205427",
    "Email": "",
    "Website": "coffeeshopamsterdam.com",
    "Contact": "",
    "Lat": "52.38007162",
    "Lng": "4.892903119",
    "Icon": "1",
    "Verified": "1",
    "Yelp": "https://www.yelp.nl/biz/coffeeshop-amsterdam-amsterdam?osq=Coffeeshop+Amsterdam",
    "Yelp_Status": "Claimed",
    "WMID": "679726343",
    "ID": "8746"
  },
  {
    "Country": "The Netherlands",
    "Name": "Popeye",
    "Address": "Haarlemmerstraat 63",
    "Zip_Code": "",
    "City": "Amsterdam",
    "Phone": "",
    "Email": "info@coffeeshop-popeye.nl",
    "Website": "",
    "Contact": "",
    "Lat": "52.37995128",
    "Lng": "4.892805219",
    "Icon": "1",
    "Verified": "1",
    "Yelp": "https://www.yelp.nl/biz/popeye-coffeeshop-amsterdam-2?osq=Popeye",
    "Yelp_Status": "Claimed",
    "WMID": "456529729",
    "ID": "8748"
  },
  {
    "Country": "The Netherlands",
    "Name": "Amsterdamned",
    "Address": "Haarlemmerstraat 8",
    "Zip_Code": "",
    "City": "Amsterdam",
    "Phone": "020 6388079",
    "Email": "info@coffeeshopamsterdamned.nl",
    "Website": "",
    "Contact": "",
    "Lat": "52.37942244",
    "Lng": "4.893998802",
    "Icon": "1",
    "Verified": "1",
    "Yelp": "",
    "Yelp_Status": "",
    "WMID": "280050272",
    "ID": "8749"
  },
  {
    "Country": "The Netherlands",
    "Name": "The Store",
    "Address": "Singel 14",
    "Zip_Code": "",
    "City": "Amsterdam",
    "Phone": "020 6263900",
    "Email": "info@thestoreamsterdam.com",
    "Website": "",
    "Contact": "",
    "Lat": "52.37904913",
    "Lng": "4.893794954",
    "Icon": "1",
    "Verified": "1",
    "Yelp": "",
    "Yelp_Status": "",
    "WMID": "868764755",
    "ID": "8752"
  },
  {
    "Country": "The Netherlands",
    "Name": "Rockland",
    "Address": "Raadhuisstraat 8",
    "Zip_Code": "",
    "City": "Amsterdam",
    "Phone": "020 6248890",
    "Email": "",
    "Website": "",
    "Contact": "",
    "Lat": "52.3734115",
    "Lng": "4.888379574",
    "Icon": "1",
    "Verified": "1",
    "Yelp": "",
    "Yelp_Status": "",
    "WMID": "219951443",
    "ID": "8754"
  },
  {
    "Country": "The Netherlands",
    "Name": "420 Cafe (de Kuil)",
    "Address": "Oudebrugsteeg 27",
    "Zip_Code": "",
    "City": "Amsterdam",
    "Phone": "020 6234848",
    "Email": "",
    "Website": "",
    "Contact": "",
    "Lat": "52.37592257",
    "Lng": "4.895881712",
    "Icon": "1",
    "Verified": "1",
    "Yelp": "",
    "Yelp_Status": "",
    "WMID": "654356032",
    "ID": "8761"
  },
  {
    "Country": "The Netherlands",
    "Name": "Rick's Coffeeshop",
    "Address": "Oudezijds Voorburgwal 250",
    "Zip_Code": "",
    "City": "Amsterdam",
    "Phone": "020 6227915",
    "Email": "",
    "Website": "",
    "Contact": "",
    "Lat": "52.37172236",
    "Lng": "4.89529565",
    "Icon": "1",
    "Verified": "1",
    "Yelp": "https://www.yelp.nl/biz/ricks-coffeeshop-amsterdam?osq=Rick%27s+Coffeeshop",
    "Yelp_Status": "Not Claimed",
    "WMID": "229002483",
    "ID": "8766"
  },
  {
    "Country": "The Netherlands",
    "Name": "Voyagers",
    "Address": "Geldersekade 2",
    "Zip_Code": "",
    "City": "Amsterdam",
    "Phone": "020 6246871",
    "Email": "info@hotelvoyager.com",
    "Website": "",
    "Contact": "",
    "Lat": "52.37637286",
    "Lng": "4.9020347",
    "Icon": "1",
    "Verified": "1",
    "Yelp": "https://www.yelp.nl/biz/voyagers-amsterdam?osq=Voyagers",
    "Yelp_Status": "Not Claimed",
    "WMID": "235111169",
    "ID": "9646"
  },
  {
    "Country": "The Netherlands",
    "Name": "Basjoe 2",
    "Address": "Amstelveenseweg 61",
    "Zip_Code": "",
    "City": "Amsterdam",
    "Phone": "020 6620985",
    "Email": "",
    "Website": "",
    "Contact": "",
    "Lat": "52.35394689",
    "Lng": "4.855893999",
    "Icon": "1",
    "Verified": "0",
    "Yelp": "",
    "Yelp_Status": "",
    "WMID": "",
    "ID": ""
  },
  {
    "Country": "The Netherlands",
    "Name": "Biba",
    "Address": "Hazenstraat 15",
    "Zip_Code": "",
    "City": "Amsterdam",
    "Phone": "",
    "Email": "",
    "Website": "",
    "Contact": "",
    "Lat": "52.37079876",
    "Lng": "4.879922569",
    "Icon": "1",
    "Verified": "0",
    "Yelp": "",
    "Yelp_Status": "",
    "WMID": "Unpublished",
    "ID": ""
  },
  {
    "Country": "The Netherlands",
    "Name": "Chapiteau",
    "Address": "Van Boetzelaerstraat 31",
    "Zip_Code": "",
    "City": "Amsterdam",
    "Phone": "020 6822548",
    "Email": "",
    "Website": "",
    "Contact": "",
    "Lat": "52.38237439",
    "Lng": "4.873054773",
    "Icon": "1",
    "Verified": "0",
    "Yelp": "https://www.yelp.nl/biz/chapiteau-coffeeshop-amsterdam?osq=Chapiteau",
    "Yelp_Status": "Not Claimed",
    "WMID": "",
    "ID": ""
  },
  {
    "Country": "The Netherlands",
    "Name": "Club Media",
    "Address": "Gerard Doustraat 83-85",
    "Zip_Code": "",
    "City": "Amsterdam",
    "Phone": "020 6645889",
    "Email": "",
    "Website": "coffeeshopclubmedia.nl",
    "Contact": "",
    "Lat": "52.35580135",
    "Lng": "4.891853035",
    "Icon": "1",
    "Verified": "0",
    "Yelp": "https://www.yelp.nl/biz/coffeeshop-club-media-amsterdam?osq=Club+Media",
    "Yelp_Status": "Not Claimed",
    "WMID": "",
    "ID": ""
  },
  {
    "Country": "The Netherlands",
    "Name": "Coffeeshop 156",
    "Address": "Hudsonstraat 156",
    "Zip_Code": "",
    "City": "Amsterdam",
    "Phone": "",
    "Email": "",
    "Website": "",
    "Contact": "",
    "Lat": "52.3696696",
    "Lng": "4.852440655",
    "Icon": "1",
    "Verified": "0",
    "Yelp": "",
    "Yelp_Status": "",
    "WMID": "",
    "ID": ""
  },
  {
    "Country": "The Netherlands",
    "Name": "Coffeeshop 96",
    "Address": "Jan Pieter Heijestraat 96",
    "Zip_Code": "",
    "City": "Amsterdam",
    "Phone": "020 6186084",
    "Email": "",
    "Website": "",
    "Contact": "",
    "Lat": "52.363555",
    "Lng": "4.863266",
    "Icon": "1",
    "Verified": "0",
    "Yelp": "",
    "Yelp_Status": "",
    "WMID": "",
    "ID": ""
  },
  {
    "Country": "The Netherlands",
    "Name": "Coffeeshop DNA",
    "Address": "Achillesstraat 104",
    "Zip_Code": "",
    "City": "Amsterdam",
    "Phone": "020 6648279",
    "Email": "",
    "Website": "shopdna.weebly.com",
    "Contact": "",
    "Lat": "52.34501264",
    "Lng": "4.864228964",
    "Icon": "1",
    "Verified": "0",
    "Yelp": "",
    "Yelp_Status": "",
    "WMID": "",
    "ID": ""
  },
  {
    "Country": "The Netherlands",
    "Name": "Crash Light",
    "Address": "Pretoriusstraat 67",
    "Zip_Code": "",
    "City": "Amsterdam",
    "Phone": "",
    "Email": "",
    "Website": "",
    "Contact": "",
    "Lat": "52.35479058",
    "Lng": "4.922226369",
    "Icon": "1",
    "Verified": "0",
    "Yelp": "",
    "Yelp_Status": "",
    "WMID": "",
    "ID": ""
  },
  {
    "Country": "The Netherlands",
    "Name": "D and L",
    "Address": "Govert Flinckstraat 323",
    "Zip_Code": "",
    "City": "Amsterdam",
    "Phone": "020 54302787",
    "Email": "",
    "Website": "",
    "Contact": "",
    "Lat": "52.35723227",
    "Lng": "4.901317209",
    "Icon": "1",
    "Verified": "0",
    "Yelp": "",
    "Yelp_Status": "",
    "WMID": "",
    "ID": ""
  },
  {
    "Country": "The Netherlands",
    "Name": "De Kade",
    "Address": "Stadionkade 107",
    "Zip_Code": "",
    "City": "Amsterdam",
    "Phone": "",
    "Email": "",
    "Website": "",
    "Contact": "",
    "Lat": "52.34350349",
    "Lng": "4.864326194",
    "Icon": "1",
    "Verified": "0",
    "Yelp": "",
    "Yelp_Status": "",
    "WMID": "",
    "ID": ""
  },
  {
    "Country": "The Netherlands",
    "Name": "De Keeper",
    "Address": "Van Woustraat 193",
    "Zip_Code": "",
    "City": "Amsterdam",
    "Phone": "020 6732972",
    "Email": "",
    "Website": "",
    "Contact": "",
    "Lat": "52.35123469",
    "Lng": "4.903562218",
    "Icon": "1",
    "Verified": "0",
    "Yelp": "https://www.yelp.nl/biz/de-keeper-amsterdam?osq=De+Keeper",
    "Yelp_Status": "Not Claimed",
    "WMID": "",
    "ID": ""
  },
  {
    "Country": "The Netherlands",
    "Name": "De Overkant Hortus",
    "Address": "Nieuwe Herengracht 71",
    "Zip_Code": "",
    "City": "Amsterdam",
    "Phone": "020 6206577",
    "Email": "",
    "Website": "",
    "Contact": "",
    "Lat": "52.36733342",
    "Lng": "4.906508625",
    "Icon": "1",
    "Verified": "0",
    "Yelp": "https://www.yelp.nl/biz/coffeeshop-hortus-de-overkant-amsterdam",
    "Yelp_Status": "Not Claimed",
    "WMID": "",
    "ID": ""
  },
  {
    "Country": "The Netherlands",
    "Name": "De Prijs",
    "Address": "Surinamestraat 7",
    "Zip_Code": "",
    "City": "Amsterdam",
    "Phone": "020 6690620",
    "Email": "",
    "Website": "",
    "Contact": "",
    "Lat": "52.35794362",
    "Lng": "4.854021147",
    "Icon": "1",
    "Verified": "0",
    "Yelp": "https://www.yelp.nl/biz/de-prijs-amsterdam?osq=De+Prijs",
    "Yelp_Status": "Not Claimed",
    "WMID": "",
    "ID": ""
  },
  {
    "Country": "The Netherlands",
    "Name": "de Republiek",
    "Address": "2e Nassaustraat 1a",
    "Zip_Code": "",
    "City": "Amsterdam",
    "Phone": "020 6828431",
    "Email": "info@thecoffeeshops.com",
    "Website": "",
    "Contact": "",
    "Lat": "52.382159",
    "Lng": "4.878596",
    "Icon": "1",
    "Verified": "0",
    "Yelp": "https://www.yelp.nl/biz/coffeeshop-de-republiek-amsterdam?osq=de+Republiek",
    "Yelp_Status": "Not Claimed",
    "WMID": "",
    "ID": ""
  },
  {
    "Country": "The Netherlands",
    "Name": "De Supermarkt",
    "Address": "Frederik Hendrikstraat 69",
    "Zip_Code": "",
    "City": "Amsterdam",
    "Phone": "",
    "Email": "info@desupermarkt.net",
    "Website": "",
    "Contact": "",
    "Lat": "52.37579076",
    "Lng": "4.873765558",
    "Icon": "1",
    "Verified": "0",
    "Yelp": "",
    "Yelp_Status": "",
    "WMID": "",
    "ID": ""
  },
  {
    "Country": "The Netherlands",
    "Name": "Eastwood",
    "Address": "Pieter Vlamingstraat 286",
    "Zip_Code": "",
    "City": "Amsterdam",
    "Phone": "020 6634236",
    "Email": "",
    "Website": "",
    "Contact": "",
    "Lat": "52.36515352",
    "Lng": "4.927928746",
    "Icon": "1",
    "Verified": "0",
    "Yelp": "https://www.yelp.nl/biz/eastwood-coffeeshop-amsterdam?osq=Eastwood",
    "Yelp_Status": "Not Claimed",
    "WMID": "",
    "ID": ""
  },
  {
    "Country": "The Netherlands",
    "Name": "El Marssa",
    "Address": "Witte de Withstraat 106",
    "Zip_Code": "",
    "City": "Amsterdam",
    "Phone": "020 6831261",
    "Email": "",
    "Website": "coffeeshop-el-marssa.business.site",
    "Contact": "",
    "Lat": "52.369015",
    "Lng": "4.859311",
    "Icon": "1",
    "Verified": "0",
    "Yelp": "",
    "Yelp_Status": "",
    "WMID": "",
    "ID": ""
  },
  {
    "Country": "The Netherlands",
    "Name": "Flashback",
    "Address": "Hudsonstraat 138/HS",
    "Zip_Code": "",
    "City": "Amsterdam",
    "Phone": "020 4896115",
    "Email": "",
    "Website": "",
    "Contact": "",
    "Lat": "52.36874104",
    "Lng": "4.852952957",
    "Icon": "1",
    "Verified": "0",
    "Yelp": "",
    "Yelp_Status": "",
    "WMID": "",
    "ID": ""
  },
  {
    "Country": "The Netherlands",
    "Name": "Freedom",
    "Address": "Van Hogendorpstraat 201",
    "Zip_Code": "",
    "City": "Amsterdam",
    "Phone": "020 6868683",
    "Email": "",
    "Website": "",
    "Contact": "",
    "Lat": "52.38256594",
    "Lng": "4.87118125",
    "Icon": "1",
    "Verified": "0",
    "Yelp": "https://www.yelp.nl/biz/freedom-coffeeshop-amsterdam?osq=Freedom",
    "Yelp_Status": "Not Claimed",
    "WMID": "",
    "ID": ""
  },
  {
    "Country": "The Netherlands",
    "Name": "Funny People 2",
    "Address": "Tt. Vasumweg 4C",
    "Zip_Code": "",
    "City": "Amsterdam",
    "Phone": "020 3621377",
    "Email": "",
    "Website": "",
    "Contact": "",
    "Lat": "52.401966",
    "Lng": "4.89852",
    "Icon": "1",
    "Verified": "0",
    "Yelp": "",
    "Yelp_Status": "",
    "WMID": "",
    "ID": ""
  },
  {
    "Country": "The Netherlands",
    "Name": "Greenhouse Tolstraat",
    "Address": "Tolstraat 91",
    "Zip_Code": "",
    "City": "Amsterdam",
    "Phone": "020 6737430",
    "Email": "info@greenhouse.org",
    "Website": "",
    "Contact": "",
    "Lat": "52.35231681",
    "Lng": "4.903463647",
    "Icon": "1",
    "Verified": "0",
    "Yelp": "https://www.yelp.nl/biz/greenhouse-amsterdam-2?osq=Greenhouse",
    "Yelp_Status": "Not Claimed",
    "WMID": "",
    "ID": ""
  },
  {
    "Country": "The Netherlands",
    "Name": "Happy Days",
    "Address": "Amsteldijk 139",
    "Zip_Code": "",
    "City": "Amsterdam",
    "Phone": "020 6613986",
    "Email": "",
    "Website": "",
    "Contact": "",
    "Lat": "52.346575",
    "Lng": "4.911279604",
    "Icon": "1",
    "Verified": "0",
    "Yelp": "https://www.yelp.nl/biz/happy-days-amsterdam?osq=Happy+Days",
    "Yelp_Status": "Not Claimed",
    "WMID": "",
    "ID": ""
  },
  {
    "Country": "The Netherlands",
    "Name": "Happy People",
    "Address": "Dapperstraat 2",
    "Zip_Code": "",
    "City": "Amsterdam",
    "Phone": "020 6931869",
    "Email": "",
    "Website": "",
    "Contact": "",
    "Lat": "52.36519201",
    "Lng": "4.925829917",
    "Icon": "1",
    "Verified": "0",
    "Yelp": "https://www.yelp.nl/biz/happy-people-coffeeshop-amsterdam?osq=Happy+People",
    "Yelp_Status": "Not Claimed",
    "WMID": "",
    "ID": ""
  },
  {
    "Country": "The Netherlands",
    "Name": "Het Gelderse",
    "Address": "Geldersekade 54",
    "Zip_Code": "",
    "City": "Amsterdam",
    "Phone": "020 4207211",
    "Email": "",
    "Website": "",
    "Contact": "",
    "Lat": "52.37496958",
    "Lng": "4.90129441",
    "Icon": "1",
    "Verified": "0",
    "Yelp": "https://www.yelp.nl/biz/coffeeshop-gelderse-het-amsterdam",
    "Yelp_Status": "Not Claimed",
    "WMID": "",
    "ID": ""
  },
  {
    "Country": "The Netherlands",
    "Name": "Het Wolkje",
    "Address": "Vechtstraat 9",
    "Zip_Code": "",
    "City": "Amsterdam",
    "Phone": "",
    "Email": "",
    "Website": "",
    "Contact": "",
    "Lat": "52.34845966",
    "Lng": "4.905602038",
    "Icon": "1",
    "Verified": "0",
    "Yelp": "",
    "Yelp_Status": "",
    "WMID": "",
    "ID": ""
  },
  {
    "Country": "The Netherlands",
    "Name": "Hugo de Groot",
    "Address": "Frederik Hendrikstraat 123",
    "Zip_Code": "",
    "City": "Amsterdam",
    "Phone": "020 6817979",
    "Email": "coffeeshop-hugo-de-groot.business.site",
    "Website": "",
    "Contact": "",
    "Lat": "52.37397317",
    "Lng": "4.872575998",
    "Icon": "1",
    "Verified": "0",
    "Yelp": "",
    "Yelp_Status": "",
    "WMID": "",
    "ID": ""
  },
  {
    "Country": "The Netherlands",
    "Name": "Hunter's Mercatorsquare",
    "Address": "Orteliusstraat 193",
    "Zip_Code": "",
    "City": "Amsterdam",
    "Phone": "",
    "Email": "info@hunters-coffeeshop.com",
    "Website": "",
    "Contact": "",
    "Lat": "52.36998567",
    "Lng": "4.849063754",
    "Icon": "1",
    "Verified": "0",
    "Yelp": "",
    "Yelp_Status": "",
    "WMID": "",
    "ID": ""
  },
  {
    "Country": "The Netherlands",
    "Name": "Hunter's Rembrandtsquare",
    "Address": "Utrechtsestraat 14",
    "Zip_Code": "",
    "City": "Amsterdam",
    "Phone": "020 6244820",
    "Email": "",
    "Website": "www.hunters-coffeeshop.com",
    "Contact": "",
    "Lat": "52.36547126",
    "Lng": "4.897527918",
    "Icon": "1",
    "Verified": "0",
    "Yelp": "",
    "Yelp_Status": "",
    "WMID": "",
    "ID": ""
  },
  {
    "Country": "The Netherlands",
    "Name": "Ibiza",
    "Address": "Hemonystraat 16",
    "Zip_Code": "",
    "City": "Amsterdam",
    "Phone": "020 2232534",
    "Email": "info@coffeeshopibiza.com",
    "Website": "",
    "Contact": "",
    "Lat": "52.35744154",
    "Lng": "4.902091697",
    "Icon": "1",
    "Verified": "0",
    "Yelp": "https://www.yelp.nl/biz/coffeeshop-ibiza-amsterdam-amsterdam-5?osq=Ibiza",
    "Yelp_Status": "Claimed",
    "WMID": "",
    "ID": ""
  },
  {
    "Country": "The Netherlands",
    "Name": "Juicebar De Watersnip",
    "Address": "Lodewijk van Deysselstraat 37",
    "Zip_Code": "",
    "City": "Amsterdam",
    "Phone": "020 6147260",
    "Email": "",
    "Website": "",
    "Contact": "",
    "Lat": "52.37708759",
    "Lng": "4.816257656",
    "Icon": "1",
    "Verified": "0",
    "Yelp": "https://www.yelp.nl/biz/watersnip-juicebar-amsterdam?osq=Juicebar+De+Watersnip",
    "Yelp_Status": "Not Claimed",
    "WMID": "",
    "ID": ""
  },
  {
    "Country": "The Netherlands",
    "Name": "Katsu",
    "Address": "1e van der Helststraat 70",
    "Zip_Code": "",
    "City": "Amsterdam",
    "Phone": "020 6752617",
    "Email": "katsu@xs4all.nl",
    "Website": "",
    "Contact": "",
    "Lat": "52.35484464",
    "Lng": "4.893301427",
    "Icon": "1",
    "Verified": "0",
    "Yelp": "https://www.yelp.nl/biz/katsu-amsterdam?osq=Katsu",
    "Yelp_Status": "Not Claimed",
    "WMID": "",
    "ID": ""
  },
  {
    "Country": "The Netherlands",
    "Name": "Kooi",
    "Address": "Amstelstraat 35",
    "Zip_Code": "",
    "City": "Amsterdam",
    "Phone": "020 6220422",
    "Email": "",
    "Website": "kooi.business.site",
    "Contact": "",
    "Lat": "52.36625822",
    "Lng": "4.899414182",
    "Icon": "1",
    "Verified": "0",
    "Yelp": "",
    "Yelp_Status": "",
    "WMID": "",
    "ID": ""
  },
  {
    "Country": "The Netherlands",
    "Name": "Loft",
    "Address": "Jan van Galenstraat 285",
    "Zip_Code": "",
    "City": "Amsterdam",
    "Phone": "020 6126953",
    "Email": "",
    "Website": "",
    "Contact": "",
    "Lat": "52.37268443",
    "Lng": "4.849491566",
    "Icon": "1",
    "Verified": "0",
    "Yelp": "",
    "Yelp_Status": "",
    "WMID": "",
    "ID": ""
  },
  {
    "Country": "The Netherlands",
    "Name": "Massawa",
    "Address": "Chassestraat 4",
    "Zip_Code": "",
    "City": "Amsterdam",
    "Phone": "020 6894377",
    "Email": "",
    "Website": "",
    "Contact": "",
    "Lat": "52.36744888",
    "Lng": "4.861994684",
    "Icon": "1",
    "Verified": "0",
    "Yelp": "https://www.yelp.nl/biz/coffeeshop-massawa-amsterdam?osq=Massawa",
    "Yelp_Status": "Not Claimed",
    "WMID": "",
    "ID": ""
  },
  {
    "Country": "The Netherlands",
    "Name": "Millennium",
    "Address": "Jan Hanzenstraat 109",
    "Zip_Code": "",
    "City": "Amsterdam",
    "Phone": "020 34059903",
    "Email": "",
    "Website": "",
    "Contact": "",
    "Lat": "52.36748655",
    "Lng": "4.863952696",
    "Icon": "1",
    "Verified": "0",
    "Yelp": "",
    "Yelp_Status": "",
    "WMID": "",
    "ID": ""
  },
  {
    "Country": "The Netherlands",
    "Name": "Nachtegaal",
    "Address": "Krugerplein 22",
    "Zip_Code": "",
    "City": "Amsterdam",
    "Phone": "020 6635599",
    "Email": "",
    "Website": "",
    "Contact": "",
    "Lat": "52.35404437",
    "Lng": "4.919352382",
    "Icon": "1",
    "Verified": "0",
    "Yelp": "",
    "Yelp_Status": "",
    "WMID": "",
    "ID": ""
  },
  {
    "Country": "The Netherlands",
    "Name": "Nice Place",
    "Address": "Van Ostadestraat 290",
    "Zip_Code": "",
    "City": "Amsterdam",
    "Phone": "020 6757148",
    "Email": "",
    "Website": "",
    "Contact": "",
    "Lat": "52.35333664",
    "Lng": "4.899702519",
    "Icon": "1",
    "Verified": "0",
    "Yelp": "https://www.yelp.nl/biz/coffeeshop-nice-place-amsterdam?osq=Nice+Place",
    "Yelp_Status": "Not Claimed",
    "WMID": "",
    "ID": ""
  },
  {
    "Country": "The Netherlands",
    "Name": "Nieuw Amsterdam",
    "Address": "Hoofdweg 226",
    "Zip_Code": "",
    "City": "Amsterdam",
    "Phone": "020 6854995",
    "Email": "info@coffeeshop-newamsterdam.com",
    "Website": "",
    "Contact": "",
    "Lat": "52.36695837",
    "Lng": "4.852864444",
    "Icon": "1",
    "Verified": "0",
    "Yelp": "",
    "Yelp_Status": "",
    "WMID": "",
    "ID": ""
  },
  {
    "Country": "The Netherlands",
    "Name": "Nogal Wiedes",
    "Address": "Czaar Peterstraat 122",
    "Zip_Code": "",
    "City": "Amsterdam",
    "Phone": "020 6391783",
    "Email": "",
    "Website": "",
    "Contact": "",
    "Lat": "52.37023787",
    "Lng": "4.929908216",
    "Icon": "1",
    "Verified": "0",
    "Yelp": "",
    "Yelp_Status": "",
    "WMID": "",
    "ID": ""
  },
  {
    "Country": "The Netherlands",
    "Name": "Old Times",
    "Address": "Ernest Staesstraat 55",
    "Zip_Code": "",
    "City": "Amsterdam",
    "Phone": "",
    "Email": "",
    "Website": "",
    "Contact": "",
    "Lat": "52.3769394",
    "Lng": "4.838495851",
    "Icon": "1",
    "Verified": "0",
    "Yelp": "",
    "Yelp_Status": "",
    "WMID": "",
    "ID": ""
  },
  {
    "Country": "The Netherlands",
    "Name": "Pacific",
    "Address": "Balthasar Floriszstraat 10",
    "Zip_Code": "",
    "City": "Amsterdam",
    "Phone": "020 6710318",
    "Email": "",
    "Website": "coffeeshop-pacific.business.site",
    "Contact": "",
    "Lat": "52.353056",
    "Lng": "4.884673",
    "Icon": "1",
    "Verified": "0",
    "Yelp": "https://www.yelp.nl/biz/coffeeshop-pacific-amsterdam?osq=Pacific",
    "Yelp_Status": "Not Claimed",
    "WMID": "",
    "ID": ""
  },
  {
    "Country": "The Netherlands",
    "Name": "Papillon",
    "Address": "Van Der Helstplein 8",
    "Zip_Code": "",
    "City": "Amsterdam",
    "Phone": "",
    "Email": "info@papillonamsterdam.nl",
    "Website": "",
    "Contact": "",
    "Lat": "52.351601",
    "Lng": "4.894505",
    "Icon": "1",
    "Verified": "0",
    "Yelp": "https://www.yelp.nl/biz/coffeeshop-papillon-amsterdam-amsterdam?osq=Papillon",
    "Yelp_Status": "Not Claimed",
    "WMID": "",
    "ID": ""
  },
  {
    "Country": "The Netherlands",
    "Name": "Relax",
    "Address": "Binnen Oranjestraat 9",
    "Zip_Code": "",
    "City": "Amsterdam",
    "Phone": "020 6391058",
    "Email": "info@coffeeshop-relax.nl",
    "Website": "",
    "Contact": "",
    "Lat": "52.38219512",
    "Lng": "4.887185991",
    "Icon": "1",
    "Verified": "0",
    "Yelp": "https://www.yelp.nl/biz/relax-coffeeshop-amsterdam?osq=Relax",
    "Yelp_Status": "Not Claimed",
    "WMID": "",
    "ID": ""
  },
  {
    "Country": "The Netherlands",
    "Name": "Risky Business",
    "Address": "Bos en Lommerweg 163",
    "Zip_Code": "",
    "City": "Amsterdam",
    "Phone": "",
    "Email": "",
    "Website": "",
    "Contact": "",
    "Lat": "52.38100404",
    "Lng": "4.855393767",
    "Icon": "1",
    "Verified": "0",
    "Yelp": "",
    "Yelp_Status": "",
    "WMID": "",
    "ID": ""
  },
  {
    "Country": "The Netherlands",
    "Name": "Rock-It",
    "Address": "Nieuwmarkt 12",
    "Zip_Code": "",
    "City": "Amsterdam",
    "Phone": "020 6200617",
    "Email": "",
    "Website": "",
    "Contact": "",
    "Lat": "52.37285146",
    "Lng": "4.899867475",
    "Icon": "1",
    "Verified": "0",
    "Yelp": "https://www.yelp.nl/biz/rock-it-coffeeshop-amsterdam?osq=Rock-It",
    "Yelp_Status": "Not Claimed",
    "WMID": "",
    "ID": ""
  },
  {
    "Country": "The Netherlands",
    "Name": "Roots",
    "Address": "Hoekenrode 14",
    "Zip_Code": "",
    "City": "Amsterdam",
    "Phone": "",
    "Email": "",
    "Website": "roots-coffeeshop.business.site",
    "Contact": "",
    "Lat": "52.311558",
    "Lng": "4.948454",
    "Icon": "1",
    "Verified": "0",
    "Yelp": "",
    "Yelp_Status": "",
    "WMID": "",
    "ID": ""
  },
  {
    "Country": "The Netherlands",
    "Name": "Roxy",
    "Address": "Gerard Doustraat 188",
    "Zip_Code": "",
    "City": "Amsterdam",
    "Phone": "",
    "Email": "coffeeshop-roxy.business.site",
    "Website": "",
    "Contact": "",
    "Lat": "52.35640665",
    "Lng": "4.895601422",
    "Icon": "1",
    "Verified": "0",
    "Yelp": "",
    "Yelp_Status": "",
    "WMID": "",
    "ID": ""
  },
  {
    "Country": "The Netherlands",
    "Name": "Ruthless",
    "Address": "Hoofdweg 174",
    "Zip_Code": "",
    "City": "Amsterdam",
    "Phone": "020 4123057",
    "Email": "info@coffeeshopruthless.nl",
    "Website": "",
    "Contact": "",
    "Lat": "52.36545242",
    "Lng": "4.853403568",
    "Icon": "1",
    "Verified": "0",
    "Yelp": "https://www.yelp.nl/biz/ruthless-koffieshop-amsterdam?osq=Ruthless",
    "Yelp_Status": "Not Claimed",
    "WMID": "",
    "ID": ""
  },
  {
    "Country": "The Netherlands",
    "Name": "Sensemillia",
    "Address": "Meer en Vaart 177/B",
    "Zip_Code": "",
    "City": "Amsterdam",
    "Phone": "020 6198846",
    "Email": "",
    "Website": "",
    "Contact": "",
    "Lat": "52.360245",
    "Lng": "4.807863",
    "Icon": "1",
    "Verified": "0",
    "Yelp": "https://www.yelp.nl/biz/sensemillia-coffeeshop-amsterdam-2?osq=Sensemillia",
    "Yelp_Status": "Not Claimed",
    "WMID": "",
    "ID": ""
  },
  {
    "Country": "The Netherlands",
    "Name": "Sensemillia",
    "Address": "Gillis van Ledenberchstraat 135-HS",
    "Zip_Code": "",
    "City": "Amsterdam",
    "Phone": "020 6865144",
    "Email": "",
    "Website": "",
    "Contact": "",
    "Lat": "52.375118",
    "Lng": "4.87128",
    "Icon": "1",
    "Verified": "0",
    "Yelp": "https://www.yelp.nl/biz/sensemillia-coffeeshop-amsterdam?osq=Sensemillia",
    "Yelp_Status": "Not Claimed",
    "WMID": "",
    "ID": ""
  },
  {
    "Country": "The Netherlands",
    "Name": "Siberie",
    "Address": "Brouwersgracht 11",
    "Zip_Code": "",
    "City": "Amsterdam",
    "Phone": "020 6235909",
    "Email": "info@siberie.net",
    "Website": "",
    "Contact": "",
    "Lat": "52.37891078",
    "Lng": "4.892955422",
    "Icon": "1",
    "Verified": "0",
    "Yelp": "https://www.yelp.nl/biz/coffeeshop-siberi%C3%AB-amsterdam-2?osq=Siberie",
    "Yelp_Status": "Not Claimed",
    "WMID": "",
    "ID": ""
  },
  {
    "Country": "The Netherlands",
    "Name": "Smoke Palace",
    "Address": "Linnaeusstraat 83",
    "Zip_Code": "",
    "City": "Amsterdam",
    "Phone": "020 4687676",
    "Email": "info@smokepalace.nl",
    "Website": "",
    "Contact": "",
    "Lat": "52.35973525",
    "Lng": "4.925825894",
    "Icon": "1",
    "Verified": "0",
    "Yelp": "https://www.yelp.nl/biz/smoke-palace-amsterdam?osq=Smoke+Palace",
    "Yelp_Status": "Not Claimed",
    "WMID": "",
    "ID": ""
  },
  {
    "Country": "The Netherlands",
    "Name": "Smokey",
    "Address": "Rembrandtplein 24",
    "Zip_Code": "",
    "City": "Amsterdam",
    "Phone": "020 6237244",
    "Email": "Info@smokey.nl",
    "Website": "",
    "Contact": "",
    "Lat": "52.36564978",
    "Lng": "4.896384627",
    "Icon": "1",
    "Verified": "0",
    "Yelp": "https://www.yelp.nl/biz/smokey-amsterdam-amsterdam?osq=Smokey",
    "Yelp_Status": "Not Claimed",
    "WMID": "",
    "ID": ""
  },
  {
    "Country": "The Netherlands",
    "Name": "Stones",
    "Address": "Ruysdaelkade 145",
    "Zip_Code": "",
    "City": "Amsterdam",
    "Phone": "",
    "Email": "",
    "Website": "www.stones.amsterdam",
    "Contact": "",
    "Lat": "52.3536946",
    "Lng": "4.887176603",
    "Icon": "1",
    "Verified": "0",
    "Yelp": "",
    "Yelp_Status": "",
    "WMID": "",
    "ID": ""
  },
  {
    "Country": "The Netherlands",
    "Name": "t Ooievaartje",
    "Address": "Ooievaarsweg 10",
    "Zip_Code": "",
    "City": "Amsterdam",
    "Phone": "020 6372215",
    "Email": "",
    "Website": "",
    "Contact": "",
    "Lat": "52.383611",
    "Lng": "4.912506",
    "Icon": "1",
    "Verified": "0",
    "Yelp": "",
    "Yelp_Status": "",
    "WMID": "",
    "ID": ""
  },
  {
    "Country": "The Netherlands",
    "Name": "Terminator",
    "Address": "Admiraal de Ruijterweg 104",
    "Zip_Code": "",
    "City": "Amsterdam",
    "Phone": "020 6169558",
    "Email": "",
    "Website": "",
    "Contact": "",
    "Lat": "52.37256735",
    "Lng": "4.859480113",
    "Icon": "1",
    "Verified": "0",
    "Yelp": "",
    "Yelp_Status": "",
    "WMID": "",
    "ID": ""
  },
  {
    "Country": "The Netherlands",
    "Name": "The Challenger",
    "Address": "Jan van Galenstraat 147",
    "Zip_Code": "",
    "City": "Amsterdam",
    "Phone": "",
    "Email": "",
    "Website": "",
    "Contact": "",
    "Lat": "52.37440465",
    "Lng": "4.857008457",
    "Icon": "1",
    "Verified": "0",
    "Yelp": "",
    "Yelp_Status": "",
    "WMID": "",
    "ID": ""
  },
  {
    "Country": "The Netherlands",
    "Name": "The Plug Utopia",
    "Address": "Nieuwezijds Voorburgwal 132",
    "Zip_Code": "",
    "City": "Amsterdam",
    "Phone": "020 6261295",
    "Email": "hostelutopia@hotmail.com",
    "Website": "",
    "Contact": "",
    "Lat": "52.37510139",
    "Lng": "4.891600907",
    "Icon": "1",
    "Verified": "0",
    "Yelp": "",
    "Yelp_Status": "",
    "WMID": "",
    "ID": ""
  },
  {
    "Country": "The Netherlands",
    "Name": "The Point",
    "Address": "3e Oosterparkstraat 73",
    "Zip_Code": "",
    "City": "Amsterdam",
    "Phone": "020 6935555",
    "Email": "",
    "Website": "",
    "Contact": "",
    "Lat": "52.35640419",
    "Lng": "4.916278571",
    "Icon": "1",
    "Verified": "0",
    "Yelp": "https://www.yelp.nl/biz/point-coffeeshop-the-amsterdam?osq=Point",
    "Yelp_Status": "Not Claimed",
    "WMID": "",
    "ID": ""
  },
  {
    "Country": "The Netherlands",
    "Name": "The Saint",
    "Address": "Regulierssteeg 1",
    "Zip_Code": "",
    "City": "Amsterdam",
    "Phone": "020 3300074",
    "Email": "",
    "Website": "",
    "Contact": "",
    "Lat": "52.36684946",
    "Lng": "4.894910753",
    "Icon": "1",
    "Verified": "0",
    "Yelp": "",
    "Yelp_Status": "",
    "WMID": "",
    "ID": ""
  },
  {
    "Country": "The Netherlands",
    "Name": "The Wauw Shop",
    "Address": "Spaarndammerdijk 9",
    "Zip_Code": "",
    "City": "Amsterdam",
    "Phone": "020 6813269",
    "Email": "",
    "Website": "",
    "Contact": "",
    "Lat": "52.391768",
    "Lng": "4.877754",
    "Icon": "1",
    "Verified": "0",
    "Yelp": "",
    "Yelp_Status": "",
    "WMID": "",
    "ID": ""
  },
  {
    "Country": "The Netherlands",
    "Name": "Topweazle",
    "Address": "Vechtstraat 63",
    "Zip_Code": "",
    "City": "Amsterdam",
    "Phone": "",
    "Email": "coffeeshoptopweazle@gmail.com",
    "Website": "",
    "Contact": "",
    "Lat": "52.34597816",
    "Lng": "4.90647912",
    "Icon": "1",
    "Verified": "0",
    "Yelp": "",
    "Yelp_Status": "",
    "WMID": "",
    "ID": ""
  },
  {
    "Country": "The Netherlands",
    "Name": "Trefpunt",
    "Address": "Zeeburgerdijk 33",
    "Zip_Code": "",
    "City": "Amsterdam",
    "Phone": "020 6639327",
    "Email": "",
    "Website": "",
    "Contact": "",
    "Lat": "52.36614194",
    "Lng": "4.929841161",
    "Icon": "1",
    "Verified": "0",
    "Yelp": "",
    "Yelp_Status": "",
    "WMID": "",
    "ID": ""
  },
  {
    "Country": "The Netherlands",
    "Name": "Vondel",
    "Address": "Overtoom 451-hs",
    "Zip_Code": "",
    "City": "Amsterdam",
    "Phone": "020 6830002",
    "Email": "",
    "Website": "",
    "Contact": "",
    "Lat": "52.35859025",
    "Lng": "4.859249443",
    "Icon": "1",
    "Verified": "0",
    "Yelp": "https://www.yelp.nl/biz/coffeeshop-vondel-amsterdam?osq=Vondel",
    "Yelp_Status": "Not Claimed",
    "WMID": "",
    "ID": ""
  },
  {
    "Country": "The Netherlands",
    "Name": "Warda 1",
    "Address": "Van Woustraat 147",
    "Zip_Code": "",
    "City": "Amsterdam",
    "Phone": "020 6756778",
    "Email": "",
    "Website": "",
    "Contact": "",
    "Lat": "52.352897",
    "Lng": "4.903",
    "Icon": "1",
    "Verified": "0",
    "Yelp": "",
    "Yelp_Status": "",
    "WMID": "",
    "ID": ""
  },
  {
    "Country": "The Netherlands",
    "Name": "Warda 2",
    "Address": "Javastraat 104",
    "Zip_Code": "",
    "City": "Amsterdam",
    "Phone": "020 6765477",
    "Email": "",
    "Website": "",
    "Contact": "",
    "Lat": "52.36362376",
    "Lng": "4.936667383",
    "Icon": "1",
    "Verified": "0",
    "Yelp": "",
    "Yelp_Status": "",
    "WMID": "",
    "ID": ""
  },
  {
    "Country": "The Netherlands",
    "Name": "Yo-Yo",
    "Address": "2e Jan van der Heijdenstraat 79",
    "Zip_Code": "",
    "City": "Amsterdam",
    "Phone": "",
    "Email": "",
    "Website": "",
    "Contact": "",
    "Lat": "52.35632433",
    "Lng": "4.903074727",
    "Icon": "1",
    "Verified": "0",
    "Yelp": "https://www.yelp.nl/biz/yoyo-amsterdam-2?osq=Yo-Yo",
    "Yelp_Status": "Not Claimed",
    "WMID": "",
    "ID": ""
  },
  {
    "Country": "Belgium",
    "Name": "Street Shop",
    "Address": "Rue Lesbroussart 111",
    "Zip_Code": "1050",
    "City": "Brussel",
    "Phone": "+32 2 640 51 40",
    "Email": "",
    "Website": "",
    "Contact": "",
    "Lat": "50.827710",
    "Lng": "4.365310",
    "Icon": "2",
    "Verified": "0",
    "Yelp": "",
    "Yelp_Status": ""
  },
  {
    "Country": "Belgium",
    "Name": "De Boeren",
    "Address": "Graanmarkt 8/10",
    "Zip_Code": "8500",
    "City": "Kortrijk",
    "Phone": "+32 471 95 48 36",
    "Email": "deboerenbvba@gmail.com",
    "Website": "",
    "Contact": "",
    "Lat": "50.826962",
    "Lng": "3.264950",
    "Icon": "2",
    "Verified": "0",
    "Yelp": "",
    "Yelp_Status": ""
  },
{
    "Country": "France",
    "Name": "Fox Seeds",
    "Address": "55 rue du Hocquet",
    "Zip_Code": "80000",
    "City": "Amiens",
    "Phone": "09 80 65 29 12",
    "Email": "",
    "Website": "https://foxseeds.fr/",
    "Contact": "",
    "Lat": "49.89556",
    "Lng": "2.30292",
    "Icon": "2",
    "Verified": "0",
    "Yelp": "",
    "Yelp_Status": ""
  },
  {
    "Country": "France",
    "Name": "Fox Seeds",
    "Address": [
      "102 bis",
      "rue de Prigieux"
    ],
    "Zip_Code": "16000",
    "City": "Angoulme",
    "Phone": "05 45 95 30 06",
    "Email": "",
    "Website": "https://foxseeds.fr/",
    "Contact": "",
    "Lat": "45.64792",
    "Lng": "0.16696",
    "Icon": "2",
    "Verified": "0",
    "Yelp": "",
    "Yelp_Status": ""
  },
  {
    "Country": "France",
    "Name": "Bestown",
    "Address": "36 rue Nationale",
    "Zip_Code": "59112",
    "City": "Annoeullin",
    "Phone": "",
    "Email": "contact@bestownshop.com",
    "Website": "http://www.bestownshop.com/",
    "Contact": "",
    "Lat": "50.522685",
    "Lng": "2.935707",
    "Icon": "2",
    "Verified": "0",
    "Yelp": "",
    "Yelp_Status": ""
  },
  {
    "Country": "France",
    "Name": "Bestown",
    "Address": "24 rue Rivotte",
    "Zip_Code": "25000",
    "City": "Besanon",
    "Phone": "",
    "Email": "contact@bestownshop.com",
    "Website": "http://www.bestownshop.com/",
    "Contact": "",
    "Lat": "47.234772",
    "Lng": "6.032379",
    "Icon": "2",
    "Verified": "0",
    "Yelp": "",
    "Yelp_Status": ""
  },
  {
    "Country": "France",
    "Name": "Bestown",
    "Address": "562 rue Raymond poincar",
    "Zip_Code": "62400",
    "City": "Bthune",
    "Phone": "",
    "Email": "contact@bestownshop.com",
    "Website": "http://www.bestownshop.com/",
    "Contact": "",
    "Lat": "50.52435",
    "Lng": "2.64037",
    "Icon": "2",
    "Verified": "0",
    "Yelp": "",
    "Yelp_Status": ""
  },
  {
    "Country": "France",
    "Name": "Fox Seeds",
    "Address": "Enclos des Jacobins",
    "Zip_Code": "18000",
    "City": "Bourges",
    "Phone": "06 69 33 93 32",
    "Email": "",
    "Website": "https://foxseeds.fr/",
    "Contact": "",
    "Lat": "47.08268",
    "Lng": "2.39546",
    "Icon": "2",
    "Verified": "0",
    "Yelp": "",
    "Yelp_Status": ""
  },
  {
    "Country": "France",
    "Name": "Fox Seeds",
    "Address": "111 avenue de Villarcher",
    "Zip_Code": "73000",
    "City": "Chambry",
    "Phone": "06 46 73 06 35",
    "Email": "",
    "Website": "https://foxseeds.fr/",
    "Contact": "",
    "Lat": "45.61139",
    "Lng": "5.8886",
    "Icon": "2",
    "Verified": "0",
    "Yelp": "",
    "Yelp_Status": ""
  },
  {
    "Country": "France",
    "Name": "Bestown",
    "Address": "3 rue Porte Randan",
    "Zip_Code": "58500",
    "City": "Clamecy",
    "Phone": "",
    "Email": "contact@bestownshop.com",
    "Website": "http://www.bestownshop.com/",
    "Contact": "",
    "Lat": "47.459916",
    "Lng": "3.517844",
    "Icon": "2",
    "Verified": "0",
    "Yelp": "",
    "Yelp_Status": ""
  },
  {
    "Country": "France",
    "Name": "Fox Seeds",
    "Address": "58 rue Lamartine",
    "Zip_Code": "63000",
    "City": "Clermont-Ferrand",
    "Phone": "09 81 79 40 35",
    "Email": "",
    "Website": "https://foxseeds.fr/",
    "Contact": "",
    "Lat": "45.77737",
    "Lng": "3.07905",
    "Icon": "2",
    "Verified": "0",
    "Yelp": "",
    "Yelp_Status": ""
  },
  {
    "Country": "France",
    "Name": "Fox Seeds",
    "Address": "5 rue le Corbusier",
    "Zip_Code": "63800",
    "City": "Cournon d'Auvergne",
    "Phone": "09 82 61 80 39",
    "Email": "info@foxseeds.fr",
    "Website": "https://foxseeds.fr/",
    "Contact": "",
    "Lat": "45.734723",
    "Lng": "3.180278",
    "Icon": "2",
    "Verified": "0",
    "Yelp": "",
    "Yelp_Status": ""
  },
  {
    "Country": "France",
    "Name": "Dream Green",
    "Address": "8 Rue du Gnral Leclerc",
    "Zip_Code": "88000",
    "City": "pinal",
    "Phone": "06 41 58 21 29",
    "Email": "",
    "Website": "",
    "Contact": "",
    "Lat": "48.1745",
    "Lng": "6.43404",
    "Icon": "2",
    "Verified": "0",
    "Yelp": "",
    "Yelp_Status": ""
  },
  {
    "Country": "France",
    "Name": "Fox Seeds",
    "Address": "12 avenue Louis Domergue",
    "Zip_Code": "97200",
    "City": "Fort-de-France",
    "Phone": "05 96 77 42 71",
    "Email": "",
    "Website": "https://foxseeds.fr/",
    "Contact": "",
    "Lat": "14.61977",
    "Lng": "-61.04916",
    "Icon": "2",
    "Verified": "0",
    "Yelp": "",
    "Yelp_Status": ""
  },
  {
    "Country": "France",
    "Name": "Fox Seeds",
    "Address": "3 avenue du Gnral Champon",
    "Zip_Code": "38000",
    "City": "Grenoble",
    "Phone": "09 83 45 64 15",
    "Email": "foxseedsgrenoble@gmail.com",
    "Website": "",
    "Contact": "",
    "Lat": "45.18099",
    "Lng": "5.731568",
    "Icon": "2",
    "Verified": "0",
    "Yelp": "",
    "Yelp_Status": ""
  },
  {
    "Country": "France",
    "Name": "Fox Seeds",
    "Address": "28 Rue de Paris",
    "Zip_Code": "95220",
    "City": "Herblay",
    "Phone": "01 39 78 98 93",
    "Email": "",
    "Website": "https://foxseeds.fr/",
    "Contact": "",
    "Lat": "48.99203",
    "Lng": "2.16834",
    "Icon": "2",
    "Verified": "0",
    "Yelp": "",
    "Yelp_Status": ""
  },
  {
    "Country": "France",
    "Name": "Fox Seeds",
    "Address": "4 rue Gambetta",
    "Zip_Code": "17480",
    "City": "Le Chteau d'Olron",
    "Phone": "",
    "Email": "",
    "Website": "",
    "Contact": "",
    "Lat": "45.88779",
    "Lng": "-1.19545",
    "Icon": "2",
    "Verified": "0",
    "Yelp": "",
    "Yelp_Status": ""
  },
  {
    "Country": "France",
    "Name": "Fox Seeds",
    "Address": "2 rue Colson",
    "Zip_Code": "59800",
    "City": "Lille",
    "Phone": "09 51 41 64 51",
    "Email": "",
    "Website": "https://foxseeds.fr/",
    "Contact": "",
    "Lat": "50.63227",
    "Lng": "3.05089",
    "Icon": "2",
    "Verified": "0",
    "Yelp": "",
    "Yelp_Status": ""
  },
  {
    "Country": "France",
    "Name": "Bestown",
    "Address": "2 rue Perrin",
    "Zip_Code": "39000",
    "City": "Lons-Le-Saunier",
    "Phone": "",
    "Email": "contact@bestownshop.com",
    "Website": "http://www.bestownshop.com/",
    "Contact": "",
    "Lat": "46.674685",
    "Lng": "5.554638",
    "Icon": "2",
    "Verified": "0",
    "Yelp": "",
    "Yelp_Status": ""
  },
  {
    "Country": "France",
    "Name": "Bestown",
    "Address": "613 avenue Janvier Passero",
    "Zip_Code": "6210",
    "City": "Mandelieu",
    "Phone": "",
    "Email": "contact@bestownshop.com",
    "Website": "http://www.bestownshop.com/",
    "Contact": "",
    "Lat": "43.55562",
    "Lng": "6.93984",
    "Icon": "2",
    "Verified": "0",
    "Yelp": "",
    "Yelp_Status": ""
  },
  {
    "Country": "France",
    "Name": "Hemp Concept",
    "Address": "5 rue du Grand Saint Jean",
    "Zip_Code": "34000",
    "City": "Montpellier",
    "Phone": "",
    "Email": "",
    "Website": "",
    "Contact": "",
    "Lat": "43.60527",
    "Lng": "3.8756",
    "Icon": "2",
    "Verified": "0",
    "Yelp": "",
    "Yelp_Status": ""
  },
  {
    "Country": "France",
    "Name": "Fox Seeds",
    "Address": "31 bis rue de la Mainguais",
    "Zip_Code": "44300",
    "City": "Nantes",
    "Phone": "02 28 16 12 56",
    "Email": "",
    "Website": "https://foxseeds.fr/",
    "Contact": "",
    "Lat": "47.269852",
    "Lng": "-1.5013",
    "Icon": "2",
    "Verified": "0",
    "Yelp": "",
    "Yelp_Status": ""
  },
  {
    "Country": "France",
    "Name": "Bestown",
    "Address": "39 rue de Clignancourt",
    "Zip_Code": "75018",
    "City": "Paris",
    "Phone": "",
    "Email": "contact@bestownshop.com",
    "Website": "http://www.bestownshop.com/",
    "Contact": "",
    "Lat": "48.886201",
    "Lng": "2.347416",
    "Icon": "2",
    "Verified": "0",
    "Yelp": "",
    "Yelp_Status": ""
  },
  {
    "Country": "France",
    "Name": "Root's Seeds",
    "Address": "43 rue Popincourt",
    "Zip_Code": "75011",
    "City": "Paris",
    "Phone": "06 49 35 68 79",
    "Email": "paris11eme@roots-seeds.com",
    "Website": "https://www.roots-seeds.fr",
    "Contact": "",
    "Lat": "48.860071",
    "Lng": "2.378143",
    "Icon": "2",
    "Verified": "0",
    "Yelp": "",
    "Yelp_Status": ""
  },
  {
    "Country": "France",
    "Name": "Cofyshop",
    "Address": "140 rue Amelot",
    "Zip_Code": "75011",
    "City": "Paris",
    "Phone": "06 66 18 44 57",
    "Email": "contact@cofyshop.com",
    "Website": "https://cofyshop.com/",
    "Contact": "",
    "Lat": "48.86528",
    "Lng": "2.36645",
    "Icon": "2",
    "Verified": "0",
    "Yelp": "",
    "Yelp_Status": ""
  },
  {
    "Country": "France",
    "Name": "Bluedreamlab",
    "Address": "77 rue d'Aboukir",
    "Zip_Code": "75002",
    "City": "Paris",
    "Phone": "",
    "Email": "",
    "Website": "https://bluedreamlab.com",
    "Contact": "",
    "Lat": "48.86788",
    "Lng": "2.34718",
    "Icon": "2",
    "Verified": "0",
    "Yelp": "",
    "Yelp_Status": ""
  },
  {
    "Country": "France",
    "Name": "Fox Seeds",
    "Address": "69 rue du Marchal Foch",
    "Zip_Code": "66000",
    "City": "Perpignan",
    "Phone": "",
    "Email": "",
    "Website": "https://foxseeds.fr/",
    "Contact": "",
    "Lat": "42.69561",
    "Lng": "2.89022",
    "Icon": "2",
    "Verified": "0",
    "Yelp": "",
    "Yelp_Status": ""
  },
  {
    "Country": "France",
    "Name": "Root's Seeds",
    "Address": "891 Route de Nmes",
    "Zip_Code": "30560",
    "City": "Saint-Hilaire-de-Brethmas",
    "Phone": "04 66 85 49 81",
    "Email": "contact@roots-seeds.com",
    "Website": "https://www.roots-seeds.fr",
    "Contact": "",
    "Lat": "44.099731",
    "Lng": "4.105232",
    "Icon": "2",
    "Verified": "0",
    "Yelp": "",
    "Yelp_Status": ""
  },
  {
    "Country": "France",
    "Name": "Smoke Dog",
    "Address": "41 Rue Reclusane",
    "Zip_Code": "31300",
    "City": "Toulouse",
    "Phone": "06 52 77 91 41",
    "Email": "",
    "Website": "http://smokedog.fr/",
    "Contact": "",
    "Lat": "43.598873",
    "Lng": "1.431823",
    "Icon": "2",
    "Verified": "0",
    "Yelp": "",
    "Yelp_Status": ""
  },
  {
    "Country": "France",
    "Name": "Bestown",
    "Address": [
      "3",
      "rue Jules-Charpentier"
    ],
    "Zip_Code": "37000",
    "City": "Tours",
    "Phone": "",
    "Email": "contact@bestownshop.com",
    "Website": "http://www.bestownshop.com/",
    "Contact": "",
    "Lat": "47.390975",
    "Lng": "0.680922",
    "Icon": "2",
    "Verified": "0",
    "Yelp": "",
    "Yelp_Status": ""
  },
  {
    "Country": "Italy",
    "Name": "GRACE GUIDONIA",
    "Address": "VIA ROMA 15",
    "Zip_Code": "00012",
    "City": "GUIDONIA MONTECELIO (RM)",
    "Province": "Lazio",
    "Phone": "7741920962",
    "Email": "graceguidonia@gmail.com",
    "Website": "",
    "Contact": "",
    "Lat": "41.9960006",
    "Lng": "12.7266297",
    "Icon": "2",
    "Verified": "1",
    "Cannabis Ligth": "1",
    "google Search": "https://www.google.com/search?q=GRACE+GUIDONIA+VIA+ROMA+15",
    "Dolcevita": "growshop.dolcevitaonline.it/negozi/grace-guidonia/",
    "Google": "No Page",
    "Stars": "",
    "fb": "https://www.facebook.com/graceshopguidonia/",
    "insta": "",
    "Remarks": "",
    "Tier": ""
  },
  {
    "Country": "Italy",
    "Name": "MARY MCJOINT 'S",
    "Address": "VIA XXIV MAGGIO 16",
    "Zip_Code": "00015",
    "City": "MONTEROTONDO (RM)",
    "Province": "Lazio",
    "Phone": "3923171545",
    "Email": "info@marymcjoints.com",
    "Website": "www.marymcjoints.com",
    "Contact": "",
    "Lat": "42.053574",
    "Lng": "12.615943",
    "Icon": "3",
    "Verified": "1",
    "Cannabis Ligth": "0",
    "google Search": "https://www.google.com/search?q=MARY+MCJOINT+'S+VIA+XXIV+MAGGIO+16",
    "Dolcevita": "growshop.dolcevitaonline.it/negozi/mary-mcjoints/",
    "Google": "1 Google review",
    "Stars": "5.0",
    "fb": "",
    "insta": "@marymcjoints",
    "Remarks": "",
    "Tier": ""
  },
  {
    "Country": "Italy",
    "Name": "I FEEL GROW",
    "Address": "VIA NAZIONALE TIBURTINA 64/C",
    "Zip_Code": "00019",
    "City": "TIVOLI (RM)",
    "Province": "Lazio",
    "Phone": "774434761",
    "Email": "ifeelgrow@gmail.com",
    "Website": "",
    "Contact": "",
    "Lat": "41.9569632",
    "Lng": "12.7771216",
    "Icon": "3",
    "Verified": "1",
    "Cannabis Ligth": "0",
    "google Search": "https://www.google.com/search?q=I+FEEL+GROW+VIA+NAZIONALE+TIBURTINA+64/C",
    "Dolcevita": "growshop.dolcevitaonline.it/negozi/i-feel-grow/",
    "Google": "3 Google reviews",
    "Stars": "5.0",
    "fb": "",
    "insta": "",
    "Remarks": "",
    "Tier": ""
  },
  {
    "Country": "Italy",
    "Name": "JOINT GROW SAN CESAREO",
    "Address": "VIA CASILINA 430",
    "Zip_Code": "00030",
    "City": "SAN CESAREO (RM)",
    "Province": "Lazio",
    "Phone": "3311831581",
    "Email": "sancesareo@jointgrow.it",
    "Website": "www.jointgrow.it",
    "Contact": "",
    "Lat": "41.822823",
    "Lng": "12.802977",
    "Icon": "2",
    "Verified": "1",
    "Cannabis Ligth": "1",
    "google Search": "https://www.google.com/search?q=JOINT+GROW+SAN+CESAREO+VIA+CASILINA+430",
    "Dolcevita": "growshop.dolcevitaonline.it/negozi/joint-grow-san-cesareo/",
    "Google": "0 Reviews",
    "Stars": "",
    "fb": "",
    "insta": "",
    "Remarks": "",
    "Tier": ""
  },
  {
    "Country": "Italy",
    "Name": "CEERBA SHOP",
    "Address": "VIA CASILINA 87",
    "Zip_Code": "00038",
    "City": "VALMONTONE (RM)",
    "Province": "Lazio",
    "Phone": "664018847",
    "Email": "info@ceerba.com",
    "Website": "www.ceerba.com",
    "Contact": "",
    "Lat": "41.77590413",
    "Lng": "12.9141609",
    "Icon": "2",
    "Verified": "1",
    "Cannabis Ligth": "1",
    "google Search": "https://www.google.com/search?q=CEERBA+SHOP+VIA+CASILINA+87",
    "Dolcevita": "growshop.dolcevitaonline.it/negozi/ceerba-shop/",
    "Google": "0 reviews",
    "Stars": "",
    "fb": "",
    "insta": "",
    "Remarks": "",
    "Tier": ""
  },
  {
    "Country": "Italy",
    "Name": "GREEN MONKEY (TOR SAN LORENZO)",
    "Address": "VIALE SAN LORENZO 10",
    "Zip_Code": "00040",
    "City": "MARINA DI ARDEA (RM)",
    "Province": "Lazio",
    "Phone": "693377320",
    "Email": "info@greenmonkeyshop.it",
    "Website": "greenmonkeyshop.it",
    "Contact": "",
    "Lat": "41.5678073",
    "Lng": "12.5356958",
    "Icon": "2",
    "Verified": "1",
    "Cannabis Ligth": "1",
    "google Search": "https://www.google.com/search?q=GREEN+MONKEY+(TOR+SAN+LORENZO)+VIALE+SAN+LORENZO+10",
    "Dolcevita": "growshop.dolcevitaonline.it/negozi/green-monkey-tor-san-lorenzo/",
    "Google": "3 Google reviews",
    "Stars": "5.0",
    "fb": "",
    "insta": "",
    "Remarks": "",
    "Tier": ""
  },
  {
    "Country": "Italy",
    "Name": "CANNABIS STORE AMSTERDAM POMEZIA",
    "Address": "VIA ALFONSO LAMARMORA 23",
    "Zip_Code": "00040",
    "City": "POMEZIA (RM)",
    "Province": "Lazio",
    "Phone": "645501869",
    "Email": "",
    "Website": "www.cannabisstoreamsterdam.com",
    "Contact": "",
    "Lat": "41.6740113",
    "Lng": "12.4979436",
    "Icon": "2",
    "Verified": "1",
    "Cannabis Ligth": "1",
    "google Search": "https://www.google.com/search?q=CANNABIS+STORE+AMSTERDAM+POMEZIA+VIA+ALFONSO+LAMARMORA+23",
    "Dolcevita": "growshop.dolcevitaonline.it/.../cannabis-store-amsterdam-pomezia/",
    "Google": "5 Google reviews",
    "Stars": "4.6",
    "fb": "",
    "insta": "",
    "Remarks": "",
    "Tier": ""
  },
  {
    "Country": "Italy",
    "Name": "PROFESSIONAL GROWING",
    "Address": "VIA SORRENTO 3",
    "Zip_Code": "00045",
    "City": "GENZANO DI ROMA (RM)",
    "Province": "Lazio",
    "Phone": "3469480703  0695211003",
    "Email": "info@professionalgrowing.com",
    "Website": "www.professionalgrowing.com",
    "Contact": "",
    "Lat": "41.701093",
    "Lng": "12.683795",
    "Icon": "3",
    "Verified": "1",
    "Cannabis Ligth": "0",
    "google Search": "https://www.google.com/search?q=PROFESSIONAL+GROWING+VIA+SORRENTO+3",
    "Dolcevita": "growshop.dolcevitaonline.it/negozi/professional-growing/",
    "Google": "23 Google reviews",
    "Stars": "4.7",
    "fb": "",
    "insta": "",
    "Remarks": "",
    "Tier": ""
  },
  {
    "Country": "Italy",
    "Name": "THE GROW FLOWERS",
    "Address": "VIA ETTORE RONCONI 4",
    "Zip_Code": "00045",
    "City": "GENZANO DI ROMA (RM)",
    "Province": "Lazio",
    "Phone": "691938661",
    "Email": "thegrowflowers@gmail.com",
    "Website": "www.thegrowflowers.it",
    "Contact": "",
    "Lat": "41.7061065",
    "Lng": "12.69194",
    "Icon": "2",
    "Verified": "1",
    "Cannabis Ligth": "1",
    "google Search": "https://www.google.com/search?q=THE+GROW+FLOWERS+VIA+ETTORE+RONCONI+4",
    "Dolcevita": "growshop.dolcevitaonline.it/negozi/the-grow-flowers/",
    "Google": "1 Google Review",
    "Stars": "1.0",
    "fb": "",
    "insta": "",
    "Remarks": "",
    "Tier": ""
  },
  {
    "Country": "Italy",
    "Name": "LUCKY HEMP",
    "Address": "VIA ALCIDE DE GASPERI 35",
    "Zip_Code": "00045",
    "City": "GENZANO DI ROMA (RM)",
    "Province": "Lazio",
    "Phone": "",
    "Email": "",
    "Website": "",
    "Contact": "",
    "Lat": "41.707593",
    "Lng": "12.684953",
    "Icon": "2",
    "Verified": "1",
    "Cannabis Ligth": "1",
    "google Search": "https://www.google.com/search?q=LUCKY+HEMP+VIA+ALCIDE+DE+GASPERI+35",
    "Dolcevita": "growshop.dolcevitaonline.it/negozi/lucky-hemp/",
    "Google": "No Page",
    "Stars": "",
    "fb": "",
    "insta": "",
    "Remarks": "",
    "Tier": ""
  },
  {
    "Country": "Italy",
    "Name": "WEED 4 YOU",
    "Address": "VIA GIUSEPPE GARIBALDI 6",
    "Zip_Code": "00046",
    "City": "GROTTAFERRATA (RM)",
    "Province": "Lazio",
    "Phone": "643687217",
    "Email": "weed4yousrls@gmail.com",
    "Website": "www.weed4yougrottaferrata.com",
    "Contact": "",
    "Lat": "41.78813",
    "Lng": "12.66837",
    "Icon": "2",
    "Verified": "1",
    "Cannabis Ligth": "1",
    "google Search": "https://www.google.com/search?q=WEED+4+YOU+VIA+GIUSEPPE+GARIBALDI+6",
    "Dolcevita": "growshop.dolcevitaonline.it/negozi/weed-4-you/",
    "Google": "0 Google Reviews",
    "Stars": "",
    "fb": "",
    "insta": "",
    "Remarks": "",
    "Tier": ""
  },
  {
    "Country": "Italy",
    "Name": "CANAPAROMA",
    "Address": "CORSO TRIESTE 53",
    "Zip_Code": "00047",
    "City": "MARINO (RM)",
    "Province": "Lazio",
    "Phone": "683959955",
    "Email": "canaparoma@gmail.com",
    "Website": "www.canaparoma.eu",
    "Contact": "",
    "Lat": "41.7691691",
    "Lng": "12.6616324",
    "Icon": "2",
    "Verified": "1",
    "Cannabis Ligth": "1",
    "google Search": "https://www.google.com/search?q=CANAPAROMA+CORSO+TRIESTE+53",
    "Dolcevita": "growshop.dolcevitaonline.it/negozi/canaparoma/",
    "Google": "7 Google reviews",
    "Stars": "5.0",
    "fb": "",
    "insta": "",
    "Remarks": "",
    "Tier": ""
  },
  {
    "Country": "Italy",
    "Name": "CANNABIS STORE AMSTERDAM MARINO",
    "Address": "CORSO VITTORIA COLONNA 6",
    "Zip_Code": "00047",
    "City": "MARINO (RM)",
    "Province": "Lazio",
    "Phone": "",
    "Email": "",
    "Website": "www.cannabisstoreamsterdam.com",
    "Contact": "",
    "Lat": "41.770836",
    "Lng": "12.6658942",
    "Icon": "2",
    "Verified": "1",
    "Cannabis Ligth": "1",
    "google Search": "https://www.google.com/search?q=CANNABIS+STORE+AMSTERDAM+MARINO+CORSO+VITTORIA+COLONNA+6",
    "Dolcevita": "growshop.dolcevitaonline.it/.../cannabis-store-amsterdam-marino/",
    "Google": "4 Google reviews",
    "Stars": "5.0",
    "fb": "",
    "insta": "",
    "Remarks": "",
    "Tier": ""
  },
  {
    "Country": "Italy",
    "Name": "JUST WEED",
    "Address": "VIA SILVIO PELLICO 5",
    "Zip_Code": "00047",
    "City": "MARINO (RM)",
    "Province": "Lazio",
    "Phone": "645769148",
    "Email": "infojustweed@gmail.com",
    "Website": "www.justweedshop.it",
    "Contact": "",
    "Lat": "41.7728822",
    "Lng": "12.6000866",
    "Icon": "2",
    "Verified": "1",
    "Cannabis Ligth": "1",
    "google Search": "https://www.google.com/search?q=JUST+WEED+VIA+SILVIO+PELLICO+5",
    "Dolcevita": "growshop.dolcevitaonline.it/negozi/just-weed-2/",
    "Google": "No Page",
    "Stars": "",
    "fb": "",
    "insta": "",
    "Remarks": "",
    "Tier": ""
  },
  {
    "Country": "Italy",
    "Name": "CANNABIS STORE AMSTERDAM NETTUNO",
    "Address": "VIA SANTA MARIA 32",
    "Zip_Code": "00048",
    "City": "NETTUNO (RM)",
    "Province": "Lazio",
    "Phone": "3711340128",
    "Email": "",
    "Website": "www.cannabisstoreamsterdam.com",
    "Contact": "",
    "Lat": "41.4579374",
    "Lng": "12.6596829",
    "Icon": "2",
    "Verified": "1",
    "Cannabis Ligth": "1",
    "google Search": "https://www.google.com/search?q=CANNABIS+STORE+AMSTERDAM+NETTUNO+VIA+SANTA+MARIA+32",
    "Dolcevita": "growshop.dolcevitaonline.it/.../cannabis-store-amsterdam-nettuno/",
    "Google": "1 Google review",
    "Stars": "5.0",
    "fb": "",
    "insta": "",
    "Remarks": "",
    "Tier": ""
  },